     3.04           OBSERVATION DATA    M (MIXED)           RINEX VERSION / TYPE
BLANK OR G = GPS, R = GLONASS, C = BDS, E = GAL, J = QZSS, M = MIXEDCOMMENT             
HGO                 HITARGET            20250511 084943 UTC PGM / RUN BY / DATE 
4444                                                        MARKER NAME         
                                                            MARKER NUMBER       
whoever             HITARGET                                OBSERVER / AGENCY   
10020463            iRTK2                                   REC # / TYPE / VERS 
1                   HITIRTK2-2                              ANT # / TYPE        
 -2623852.7753  3977002.9251  4226096.5356                  APPROX POSITION XYZ 
------------------------------------------------------------COMMENT             
*** Antenna height is from mark to ANTENNA Phase Center.    COMMENT             
------------------------------------------------------------COMMENT             
        1.5026        0.0000        0.0000                  ANTENNA: DELTA H/E/N
G    9 C1C C2W C2X L1C L2W L2X S1C S2W S2X                  SYS / # / OBS TYPES 
R   12 C1C C1P C2P C2C L1C L1P L2P L2C S1C S1P S2P S2C      SYS / # / OBS TYPES 
E   12 C1X C5X C7X C8X L1X L5X L7X L8X S1X S5X S7X S8X      SYS / # / OBS TYPES 
C    6 C2I C7I L2I L7I S2I S7I                              SYS / # / OBS TYPES 
     5.000                                                  INTERVAL            
  2025     4    10     7    20   45.0000000     GPS         TIME OF FIRST OBS   
  2025     4    10     7    41    0.0000000     GPS         TIME OF LAST OBS    
     0                                                      RCV CLOCK OFFS APPL 
    18                                                      LEAP SECONDS        
                                                            END OF HEADER       
> 2025 04 10 07 20 45.0000000  0 30
G17  21542947.109                    21542955.121   113208941.845                    88214794.685          45.900                          45.200  
G11  22318001.578                    22318008.953   117281950.633                    91388514.987          44.700                          46.600  
G20  23369938.891    23369947.563                   122809960.559    95696031.610                          41.600          26.400                  
G22  23610148.328    23610158.523                   124072115.315    96679641.371                          40.500          23.000                  
G19  19846473.758    19846477.633                   104293912.858    81268012.992                          49.000          42.800                  
G06  20720058.664                    20720067.996   108884664.716                    84845214.258          48.900                          48.200  
G09  22526494.953                    22526506.160   118377600.440                    92242274.755          42.200                          45.700  
G04  22940863.641                    22940873.293   120555080.569                    93939041.579          40.600                          42.600  
G12  23130814.820                    23130823.473   121553271.494                    94716852.315          41.800                          43.000  
R01  22145535.000    22145534.188                                   118380564.580   118380547.578                                          43.700          41.600                                  
R02  20171960.297    20171958.625    20171967.273    20171967.082   107641473.842   107641462.842    83721145.709    83721152.713          51.200          49.100          48.000          48.900  
R18  20649041.352    20649040.160    20649047.895    20649047.191   110226002.614   110225979.623    85731324.453    85731334.457          49.700          47.700          47.500          48.800  
R17  19876685.125    19876684.426    19876692.184    19876692.047   106364150.717   106364139.735    82727702.979    82727701.981          51.100          49.300          48.600          49.700  
R16  21930422.977    21930423.457    21930433.043    21930432.520   117148382.736   117148340.764    91115363.018    91115370.009          46.000          45.100          46.100          47.300  
R24  23060675.047    23060674.934    23060687.379    23060686.945   123315738.910   123315785.926    95912297.692    95912273.697          47.000          45.000          44.300          44.700  
R03  21864514.008    21864513.219    21864524.789    21864524.980   117042523.982   117042449.003    91033048.794    91033059.797          45.700          44.500          47.100          47.500  
E03  26274193.211    26274204.051    26274201.660    26274204.230   138071848.032   103105613.618   105795318.587   104450486.711          43.500          43.000          45.300          49.800  
E13  25344323.273    25344332.383    25344330.320    25344332.391   133185346.734    99456586.512   102051099.734   100753854.727          44.400          46.100          47.300          52.400  
E30  27687155.859    27687174.121    27687170.883    27687173.797   145496927.624   108650327.368   111484691.211   110067521.898          41.700          40.500          42.300          46.800  
E15  23598023.648    23598031.184    23598029.965    23598031.645   124008453.527    92603694.841    95019443.816    93811572.938          48.500          48.300          49.200          55.300  
E21  25962844.234    25962852.672    25962850.188    25962852.770   136435680.937   101883782.790   104541620.443   103212720.227          44.000          45.300          46.400          51.900  
E05  25291836.297    25291846.500    25291844.391    25291846.953   132909502.979    99250621.331   101839755.579   100545197.063          43.400          41.600          44.800          48.900  
E27  24995084.109    24995093.246    24995090.527    24995093.223   131350040.017    98086066.093   100644814.419    99365445.364          46.600          47.300          48.200          53.600  
C04  38528060.672    38528060.000   200625768.079   155136530.173          36.200          41.100  
C03  37516744.875    37516744.027   195359565.696   151064375.863          39.400          41.400  
C02  38985988.477    38985987.980   203010323.486   156980416.391          35.400          40.800  
C30  22738560.352                   118405635.155                          47.200                  
C29  21792176.008                   113477577.235                          49.000                  
C20  23012953.977                   119834540.013                          47.900                  
C13  38437009.680    38437015.449   200151634.577   154769943.524          42.100          40.800  
> 2025 04 10 07 20 50.0000000  0 30
G17  21543560.305                    21543568.277   113212166.017                    88217307.023          45.500                          45.500  
G11  22314688.961                    22314696.332   117264544.567                    91374951.823          44.600                          46.000  
G20  23365606.352    23365615.031                   122787195.183    95678292.397                          41.600          26.000                  
G22  23611931.625    23611942.406                   124081489.143    96686945.529                          41.300          26.200                  
G19  19845660.211    19845663.742                   104289636.829    81264681.025                          49.900          42.400                  
G06  20718263.703                    20718272.965   108875232.868                    84837864.774          50.000                          48.000  
G09  22523075.281                    22523086.191   118359628.281                    92228270.506          42.100                          44.800  
G04  22939011.945                    22939021.402   120545351.719                    93931460.661          41.900                          43.100  
G12  23128112.656                    23128121.328   121539071.655                    94705787.507          41.700                          43.500  
R01  22147070.422    22147068.555                                   118388764.807   118388747.788                                          43.800          42.100                                  
R02  20169959.484    20169958.750    20169966.746    20169966.723   107630799.901   107630788.909    83712843.757    83712850.768          50.500          49.500          48.000          48.200  
R18  20645896.273    20645895.316    20645903.090    20645901.883   110209212.396   110209189.390    85718265.403    85718275.399          49.300          47.000          47.500          48.500  
R17  19875917.008    19875915.840    19875923.336    19875923.285   106360038.479   106360027.476    82724504.567    82724503.563          51.300          48.900          48.500          49.100  
R16  21930782.234    21930780.137    21930790.059    21930789.684   117150291.192   117150249.190    91116847.369    91116854.358          47.000          44.400          45.500          47.200  
R24  23061988.375    23061988.027    23061999.871    23061999.754   123322759.804   123322806.834    95917758.389    95917734.397          47.600          45.600          44.000          44.600  
R03  21859369.539    21859368.633    21859380.137    21859380.340   117014986.040   117014911.066    91011630.478    91011641.473          44.800          43.900          46.100          46.100  
E03  26270804.945    26270815.520    26270813.504    26270815.785   138054042.019   103092316.947   105781675.038   104437016.600          43.300          42.800          45.300          49.800  
E13  25341479.711    25341488.809    25341486.840    25341488.902   133170403.813    99445427.836   102039649.977   100742550.513          44.700          45.000          47.000          52.100  
E30  27688845.125    27688862.145    27688860.410    27688862.637   145505802.664   108656954.785   111491491.502   110074235.756          41.900          38.100          40.600          44.700  
E15  23597043.469    23597050.707    23597049.766    23597051.352   124003302.261    92599848.104    95015496.740    93807676.024          47.900          48.300          49.300          55.500  
E21  25960684.813    25960692.922    25960690.297    25960693.016   136424331.454   101875307.530   104532924.093   103204134.416          44.500          45.700          46.200          51.600  
E05  25290559.781    25290569.770    25290567.520    25290570.168   132902793.464    99245610.995   101834614.542   100540121.379          42.900          40.900          43.400          48.300  
E27  24995518.891    24995527.320    24995525.539    24995527.707   131352323.674    98087771.413   100646564.231    99367172.931          46.800          47.000          47.900          53.700  
C04  38526692.805    38526693.055   200618649.524   155131025.673          36.100          40.700  
C03  37515395.188    37515395.039   195352540.616   151058943.633          39.000          41.600  
C02  38984612.125    38984612.789   203003160.146   156974877.247          35.700          39.900  
C30  22738831.648                   118407049.037                          46.600                  
C29  21789867.172                   113465554.620                          49.500                  
C20  23009484.727                   119816474.350                          48.500                  
C13  38434794.234    38434800.988   200140100.555   154761024.699          41.400          41.200  
> 2025 04 10 07 20 55.0000000  0 30
G17  21544176.055                    21544183.828   113215399.859                    88219826.880          45.800                          45.100  
G11  22311377.453                    22311385.164   117247143.478                    91361392.547          44.200                          46.200  
G20  23361274.969    23361284.094                   122764435.659    95660557.771                          39.300          23.500                  
G22  23613716.273    23613726.996                   124090866.502    96694252.563                          41.800          23.300                  
G19  19844849.172    19844853.355                   104285375.161    81261360.238                          48.900          42.700                  
G06  20716470.344                    20716479.934   108865808.314                    84830520.960          49.300                          48.300  
G09  22519657.055                    22519668.375   118341667.153                    92214274.849          42.100                          44.500  
G04  22937163.828                    22937173.211   120535638.001                    93923891.532          41.400                          42.800  
G12  23125414.297                    23125422.070   121524887.830                    94694735.189          42.600                          42.600  
R01  22148605.523    22148604.359                                   118396980.518   118396963.531                                          42.400          41.600                                  
R02  20167964.688    20167962.547    20167970.637    20167970.676   107620148.760   107620137.768    83704559.551    83704566.568          51.500          49.500          47.300          48.200  
R18  20642749.992    20642750.207    20642758.281    20642757.449   110192427.095   110192404.081    85705210.161    85705220.165          49.200          47.000          48.200          48.700  
R17  19875149.148    19875148.918    19875156.629    19875156.656   106355934.606   106355923.632    82721312.689    82721311.693          50.800          49.100          49.100          49.500  
R16  21931141.047    21931140.590    21931150.453    21931150.738   117152218.288   117152176.292    91118346.201    91118353.203          45.600          44.300          44.600          45.500  
R24  23063302.117    23063301.535    23063313.762    23063313.547   123329784.812   123329831.815    95923222.239    95923198.233          45.600          44.900          42.000          43.100  
R03  21854225.617    21854226.238    21854236.969    21854237.172   116987456.461   116987381.498    90990218.586    90990229.582          45.000          45.000          46.600          46.200  
E03  26267417.758    26267428.535    26267426.426    26267428.531   138036242.802   103079025.370   105768036.716   104423551.651          42.000          43.000          44.600          49.600  
E13  25338636.781    25338645.781    25338643.621    25338645.949   133155463.851    99434271.369   102028202.467   100731248.524          45.100          45.500          47.300          52.300  
E30  27690534.609    27690551.469    27690549.406    27690551.785   145514678.279   108663582.532   111498292.181   110080949.966          41.400          40.900          42.700          47.600  
E15  23596063.953    23596071.043    23596070.059    23596071.770   123998154.758    92596004.196    95011552.549    93803781.977          48.500          48.200          49.100          55.400  
E21  25958526.961    25958535.348    25958532.676    25958535.195   136412993.523   101866840.897   104524236.581   103195557.348          44.900          45.100          46.000          51.100  
E05  25289285.164    25289295.363    25289293.066    25289295.477   132896095.735    99240609.448   101829482.510   100535054.586          43.100          41.700          43.900          48.300  
E27  24995955.469    24995963.867    24995962.086    24995964.211   131354616.866    98089483.829   100648321.313    99368907.677          45.700          46.500          48.900          54.000  
C04  38525326.336    38525325.805   200611531.030   155125521.182          36.100          40.800  
C03  37514046.422    37514045.531   195345515.506   151053511.354          38.700          41.700  
C02  38983237.398    38983237.004   202995996.775   156969338.094          34.100          40.100  
C30  22739104.570                   118408469.453                          47.300                  
C29  21787559.391                   113453538.424                          49.000                  
C20  23006017.516                   119798419.629                          48.600                  
C13  38432579.742    38432586.125   200128569.387   154752108.096          41.100          40.500  
> 2025 04 10 07 21  0.0000000  0 30
G17  21544793.516                    21544801.645   113218644.549                    88222355.214          45.700                          45.400  
G11  22308066.898                    22308075.219   117229748.606                    91347838.109          43.400                          46.900  
G20  23356945.672    23356954.152                   122741683.122    95642828.505                          41.300          26.500                  
G22  23615502.070    23615512.324                   124100248.555    96701563.223                          41.500          24.900                  
G19  19844041.438    19844045.117                   104281129.069    81258051.593                          49.100          42.800                  
G06  20714678.406                    20714687.867   108856392.180                    84823183.711          49.500                          47.900  
G09  22516242.328                    22516252.695   118323718.360                    92200288.785          43.000                          45.000  
G04  22935318.633                    22935328.258   120525940.623                    93916335.153          41.800                          42.900  
G12  23122718.813                    23122726.285   121510721.201                    94683696.267          42.200                          43.700  
R01  22150146.617    22150144.516                                   118405213.010   118405196.011                                          42.000          40.900                                  
R02  20165972.789    20165971.703    20165979.430    20165979.492   107609521.589   107609510.590    83696293.988    83696300.992          51.800          49.200          47.400          48.200  
R18  20639607.594    20639606.520    20639614.887    20639613.594   110175647.918   110175624.927    85692159.701    85692169.706          48.600          46.100          48.200          48.200  
R17  19874384.867    19874383.344    19874391.016    19874390.855   106351840.675   106351829.680    82718128.496    82718127.506          51.300          49.500          48.800          49.300  
R16  21931505.484    21931506.320    21931514.813    21931515.363   117154165.373   117154123.393    91119860.575    91119867.593          45.200          45.200          44.400          45.200  
R24  23064616.750    23064616.754    23064627.730    23064627.285   123336815.061   123336862.052    95928690.213    95928666.217          45.600          43.600          41.000          41.300  
R03  21849085.219    21849086.074    21849096.223    21849095.988   116959936.651   116959861.649    90968814.311    90968825.307          45.600          44.800          47.000          47.400  
E03  26264032.383    26264042.875    26264040.953    26264043.047   138018451.515   103065739.692   105754404.465   104410092.681          42.100          43.100          45.000          49.700  
E13  25335794.836    25335803.188    25335801.031    25335803.574   133140528.045    99423118.006   102016758.146   100719949.680          45.100          45.700          47.000          52.300  
E30  27692223.656    27692241.457    27692238.219    27692241.125   145523555.382   108670211.425   111505094.013   110087665.327          39.100          40.300          41.800          46.400  
E15  23595085.516    23595092.980    23595091.527    23595093.227   123993012.225    92592163.991    95007612.163    93799891.681          48.500          48.100          49.400          55.400  
E21  25956372.602    25956380.164    25956377.582    25956380.195   136401668.336   101858383.777   104515558.841   103186989.921          43.600          44.700          46.600          51.300  
E05  25288013.336    25288022.895    25288020.785    25288023.230   132889411.095    99235617.675   101824360.507   100529997.699          42.300          41.100          44.000          48.000  
E27  24996394.367    24996402.117    24996400.664    24996402.469   131356920.709    98091204.238   100650086.606    99370650.523          46.600          46.700          48.300          53.800  
C04  38523959.625    38523959.230   200604413.905   155120017.777          36.400          41.000  
C03  37512697.367    37512696.949   195338491.663   151048080.092          39.300          41.400  
C02  38981861.891    38981860.875   202988833.457   156963798.688          34.400          41.200  
C30  22739378.883                   118409897.504                          47.100                  
C29  21785253.367                   113441529.828                          49.400                  
C20  23002552.070                   119780377.027                          48.100                  
C13  38430366.117    38430372.832   200117042.391   154743194.681          41.000          41.200  
> 2025 04 10 07 21  5.0000000  0 30
G17  21545413.008                    21545420.176   113221899.156                    88224891.260          45.900                          46.200  
G11  22304758.297                    22304765.953   117212358.972                    91334287.762          43.700                          46.800  
G20  23352616.977    23352625.637                   122718936.592    95625103.954                          41.100          26.700                  
G22  23617287.375    23617298.762                   124109634.331    96708876.727                          40.200          22.500                  
G19  19843235.805    19843239.715                   104276897.556    81254754.300                          49.100          42.600                  
G06  20712887.656                    20712897.367   108846983.555                    84815852.324          49.500                          48.800  
G09  22512829.234                    22512839.293   118305780.881                    92186311.533          43.400                          45.200  
G04  22933475.391                    22933486.395   120516258.649                    93908790.761          41.100                          43.200  
G12  23120025.453                    23120033.699   121496570.786                    94672669.988          41.800                          42.100  
R01  22151689.039    22151687.055                                   118413461.326   118413444.308                                          42.000          40.200                                  
R02  20163985.625    20163984.305    20163992.484    20163992.301   107598917.401   107598906.409    83688046.299    83688053.303          51.100          49.000          48.300          48.600  
R18  20636464.617    20636464.598    20636472.977    20636472.215   110158873.927   110158850.921    85679113.266    85679123.270          48.600          46.700          48.200          48.700  
R17  19873620.867    19873620.871    19873628.367    19873628.227   106347755.541   106347744.544    82714951.176    82714950.172          51.200          49.000          49.100          49.300  
R16  21931873.828    21931873.957    21931882.555    21931882.594   117156131.367   117156089.364    91121389.656    91121396.674          46.300          45.300          45.100          45.500  
R24  23065932.281    23065930.879    23065943.176    23065942.836   123343849.713   123343896.710    95934161.617    95934137.618          42.400          40.900          41.600          41.400  
R03  21843946.477    21843947.098    21843956.875    21843957.598   116932425.584   116932350.576    90947416.843    90947427.831          45.600          45.100          46.700          46.800  
E03  26260648.430    26260658.902    26260656.746    26260658.945   138000667.300   103052459.288   105740777.611   104396639.057          42.800          43.200          45.100          49.800  
E13  25332953.180    25332961.621    25332959.699    25332962.105   133125595.384    99411967.007   102005316.258   100708653.240          44.500          45.900          46.900          52.600  
E30  27693913.227    27693930.809    27693927.992    27693930.688   145532433.119   108676840.786   111511896.322   110094381.160          39.900          40.200          41.100          46.100  
E15  23594107.773    23594115.238    23594113.738    23594115.379   123987873.726    92588326.798    95003674.868    93796004.439          49.100          48.000          48.900          55.300  
E21  25954219.242    25954227.637    25954225.055    25954227.387   136390354.883   101849935.451   104506890.123   103178431.398          44.500          45.000          46.000          51.200  
E05  25286743.742    25286753.563    25286751.309    25286753.855   132882738.487    99230634.881   101819247.740   100524949.918          43.000          41.100          44.100          48.000  
E27  24996834.352    24996842.828    24996840.902    24996842.770   131359234.258    98092931.880   100651859.322    99372400.709          47.100          46.000          47.700          53.300  
C04  38522592.938    38522592.504   200597297.004   155114514.537          36.700          41.300  
C03  37511348.844    37511347.871   195331468.071   151042649.003          38.300          42.500  
C02  38980485.867    38980485.945   202981671.278   156958260.489          35.200          40.800  
C30  22739654.531                   118411332.314                          47.300                  
C29  21782948.633                   113429527.882                          49.400                  
C20  22999089.969                   119762345.605                          48.500                  
C13  38428153.063    38428160.004   200105518.510   154734283.688          41.500          41.800  
> 2025 04 10 07 21 10.0000000  0 30
G17  21546033.750                    21546041.754   113225163.554                    88227434.929          45.300                          45.300  
G11  22301449.945                    22301457.859   117194974.439                    91320741.360          43.400                          46.700  
G20  23348289.125    23348298.426                   122696196.012    95607384.079                          39.700          23.000                  
G22  23619073.672    23619085.730                   124119023.605    96716193.015                          38.800          22.300                  
G19  19842433.438    19842437.555                   104272680.526    81251468.303                          48.800          43.100                  
G06  20711099.047                    20711108.254   108837582.307                    84808526.667          48.900                          48.600  
G09  22509416.289                    22509427.852   118287854.622                    92172343.020          42.200                          45.200  
G04  22931636.797                    22931646.711   120506591.907                    93901258.256          41.700                          43.600  
G12  23117335.578                    23117343.977   121482436.581                    94661656.310          43.000                          43.100  
R01  22153235.438    22153234.039                                   118421725.138   118421708.158                                          42.100          40.800                                  
R02  20162001.805    20162001.070    20162009.340    20162009.082   107588335.982   107588324.977    83679816.311    83679823.314          51.400          49.000          47.700          48.300  
R18  20633324.336    20633323.262    20633331.398    20633330.793   110142104.958   110142081.966    85666070.734    85666080.738          48.400          46.900          48.000          49.100  
R17  19872860.375    19872858.383    19872865.906    19872865.867   106343679.177   106343668.188    82711780.653    82711779.649          51.400          49.900          48.700          48.500  
R16  21932247.742    21932245.645    21932254.555    21932254.449   117158116.079   117158074.077    91122933.319    91122940.338          48.100          45.700          44.900          44.700  
R24  23067247.352    23067246.652    23067259.063    23067259.293   123350888.647   123350935.687    95939636.339    95939612.354          41.700          40.400          40.900          41.900  
R03  21838809.828    21838809.273    21838818.926    21838819.430   116904923.137   116904848.144    90926026.106    90926037.104          46.400          44.900          46.600          46.400  
E03  26257265.445    26257276.059    26257273.668    26257276.059   137982889.964   103039184.024   105727156.036   104383190.632          43.700          44.000          45.500          50.100  
E13  25330111.984    25330120.953    25330118.469    25330121.207   133110665.802    99400818.288   101993876.702   100697359.103          44.600          45.900          47.100          52.600  
E30  27695602.844    27695620.156    27695617.766    27695620.305   145541311.299   108683470.479   111518698.983   110101097.344          40.900          40.400          42.100          47.100  
E15  23593130.469    23593138.039    23593136.352    23593138.262   123982739.089    92584492.492    94999740.539    93792120.124          48.800          47.400          48.500          55.200  
E21  25952068.617    25952077.109    25952074.156    25952076.641   136379053.136   101841495.871   104498230.378   103169881.735          45.100          44.900          46.200          51.500  
E05  25285476.570    25285485.727    25285483.805    25285486.273   132876077.883    99225661.063   101814144.159   100519911.221          43.300          41.600          43.800          48.200  
E27  24997276.273    24997285.137    24997282.934    24997285.008   131361557.409    98094666.686   100653639.382    99374158.144          47.200          46.900          48.200          53.900  
C04  38521226.594    38521225.902   200590180.387   155109011.521          36.200          40.500  
C03  37509999.523    37509999.352   195324444.632   151037218.026          38.500          41.800  
C02  38979110.617    38979110.664   202974509.162   156952722.263          34.600          39.700  
C30  22739931.055                   118412773.689                          47.200                  
C29  21780644.727                   113417532.493                          49.900                  
C20  22995629.000                   119744325.224                          47.600                  
C13  38425940.297    38425947.641   200093997.676   154725375.040          41.700          40.100  
> 2025 04 10 07 21 15.0000000  0 30
G17  21546657.203                    21546665.133   113228438.517                    88229986.845          45.300                          45.000  
G11  22298142.406                    22298151.426   117177595.734                    91307199.523          43.300                          46.600  
G20  23343963.352    23343972.629                   122673462.072    95589669.370                          39.200          24.500                  
G22  23620861.875    23620872.859                   124128417.277    96723512.670                          37.900          21.100                  
G19  19841633.914    19841637.965                   104268478.705    81248194.159                          48.200          42.600                  
G06  20709311.516                    20709320.547   108828189.119                    84801207.313          49.100                          48.300  
G09  22506007.109                    22506018.578   118269940.319                    92158383.861          41.500                          45.100  
G04  22929800.133                    22929809.965   120496941.161                    93893738.183          42.000                          44.000  
G12  23114649.469                    23114657.375   121468319.227                    94650655.789          40.600                          42.200  
R01  22154783.102    22154782.758                                   118430005.201   118429988.229                                          42.000          41.200                                  
R02  20160023.336    20160022.484    20160030.566    20160030.730   107577778.221   107577767.235    83671604.728    83671611.738          50.900          48.800          47.700          48.200  
R18  20630183.945    20630182.871    20630190.914    20630190.375   110125341.822   110125318.815    85653032.747    85653042.744          47.900          46.400          47.400          48.700  
R17  19872099.625    19872098.102    19872106.113    19872106.219   106339612.200   106339601.204    82708617.460    82708616.457          51.400          49.700          48.300          49.500  
R16  21932621.313    21932620.504    21932630.180    21932629.969   117160120.232   117160078.230    91124492.088    91124499.092          47.500          45.100          45.500          46.000  
R24  23068566.164    23068565.465    23068576.027    23068576.391   123357932.473   123357979.484    95945114.790    95945090.797          42.700          41.000          41.600          41.400  
R03  21833673.133    21833672.227    21833683.168    21833683.426   116877430.057   116877355.062    90904642.654    90904653.656          44.900          43.100          44.600          45.200  
E03  26253883.414    26253894.980    26253892.262    26253894.512   137965120.222   103025914.418   105713540.272   104369747.954          42.400          43.600          44.700          50.100  
E13  25327271.648    25327280.914    25327277.961    25327280.875   133095739.998    99389672.396   101982440.049   100686067.834          44.000          45.900          47.300          52.700  
E30  27697292.672    27697310.375    27697306.719    27697310.094   145550190.705   108690101.129   111525502.597   110107814.473          40.500          39.100          40.900          45.700  
E15  23592154.594    23592161.777    23592160.137    23592161.996   123977609.065    92580661.621    94995809.734    93788239.283          48.500          48.300          49.300          55.500  
E21  25949920.094    25949928.590    25949926.105    25949928.270   136367763.713   101833065.502   104489580.073   103161341.396          44.800          44.800          46.100          51.600  
E05  25284211.602    25284221.000    25284219.219    25284221.289   132869429.905    99220696.649   101809050.257   100514882.063          42.800          42.300          44.000          48.600  
E27  24997720.266    24997729.039    24997726.602    24997728.883   131363890.835    98096409.175   100655427.324    99375923.360          47.200          46.400          47.800          53.300  
C04  38519859.922    38519859.035   200583064.618   155103509.159          35.200          40.500  
C03  37508651.320    37508650.852   195317421.985   151031787.687          39.400          41.200  
C02  38977735.867    38977735.504   202967347.735   156947184.622          34.700          40.500  
C30  22740209.438                   118414222.385                          47.600                  
C29  21778342.789                   113405544.346                          49.100                  
C20  22992170.773                   119726316.638                          48.000                  
C13  38423728.820    38423735.629   200082480.588   154716469.284          42.000          40.800  
> 2025 04 10 07 21 20.0000000  0 30
G17  21547282.711                    21547290.500   113231722.823                    88232546.034          45.400                          45.200  
G11  22294836.500                    22294844.949   117160221.802                    91293661.397          43.900                          46.000  
G20  23339637.656    23339647.418                   122650733.667    95571958.928                          39.600          25.000                  
G22  23622649.406    23622660.973                   124137814.022    96730834.762                          39.700          25.800                  
G19  19840837.156    19840840.723                   104264290.953    81244930.979                          48.900          43.200                  
G06  20707526.008                    20707534.523   108818802.913                    84793893.377          49.100                          48.300  
G09  22502601.742                    22502611.508   118252036.842                    92144433.124          42.400                          45.300  
G04  22927966.539                    22927976.500   120487305.237                    93886229.659          41.600                          44.600  
G12  23111965.672                    23111974.367   121454217.649                    94639667.531          41.400                          43.000  
R01  22156336.609    22156334.508                                   118438300.421   118438283.426                                          41.500          40.400                                  
R02  20158049.195    20158048.695    20158056.738    20158056.570   107567242.860   107567231.861    83663410.562    83663417.565          50.900          49.500          48.000          48.000  
R18  20627043.883    20627043.395    20627051.809    20627051.047   110108583.343   110108560.344    85639998.374    85640008.378          48.800          46.600          47.800          48.600  
R17  19871341.305    19871339.898    19871347.859    19871347.766   106335553.492   106335542.496    82705460.682    82705459.678          50.800          49.100          48.900          49.800  
R16  21933000.117    21932999.426    21933008.340    21933008.367   117162142.634   117162100.632    91126065.074    91126072.069          45.800          43.900          45.500          46.000  
R24  23069884.539    23069883.020    23069894.980    23069894.727   123364980.104   123365027.115    95950596.234    95950572.238          44.300          42.400          42.800          42.800  
R03  21828538.211    21828537.188    21828548.637    21828548.988   116849945.351   116849870.349    90883265.688    90883276.692          45.300          43.100          45.600          45.600  
E03  26250503.055    26250514.652    26250512.539    26250514.395   137947357.055   103012649.749   105699929.557   104356310.259          42.600          44.200          45.400          50.700  
E13  25324432.273    25324440.711    25324438.508    25324440.977   133080816.818    99378528.485   101971005.424   100674778.563          44.900          46.200          47.600          52.900  
E30  27698982.602    27698999.926    27698996.832    27698999.625   145559070.089   108696731.706   111532306.166   110114531.549          39.900          38.100          40.900          45.000  
E15  23591178.977    23591186.363    23591184.582    23591186.527   123972482.506    92576833.341    94991881.584    93784361.068          48.100          48.200          48.900          55.400  
E21  25947773.680    25947782.406    25947779.828    25947781.867   136356485.536   101824643.506   104480938.376   103152809.553          43.600          45.400          46.200          51.400  
E05  25282948.414    25282958.473    25282956.270    25282958.461   132862793.480    99215740.903   101803965.211   100509861.667          43.400          41.400          43.600          48.200  
E27  24998166.258    24998174.793    24998172.164    24998174.805   131366233.441    98098158.491   100657222.279    99377695.495          46.700          46.900          48.400          53.700  
C04  38518493.383    38518492.551   200575948.700   155098006.679          35.800          40.000  
C03  37507302.484    37507302.156   195310399.151   151026357.191          38.700          41.700  
C02  38976359.281    38976360.227   202960186.043   156941646.686          34.100          39.500  
C30  22740488.828                   118415677.290                          47.500                  
C29  21776041.758                   113393562.362                          49.300                  
C20  22988714.422                   119708318.730                          48.000                  
C13  38421517.109    38421524.438   200070966.169   154707565.629          40.700          40.500  
> 2025 04 10 07 21 25.0000000  0 30
G17  21547909.398                    21547916.828   113235015.929                    88235112.092          45.800                          45.100  
G11  22291531.164                    22291539.129   117142851.962                    91280126.470          43.500                          46.400  
G20  23335313.648    23335323.551                   122628010.242    95554252.394                          40.200          26.700                  
G22  23624439.211    23624450.012                   124147213.298    96738158.851                          41.300          22.600                  
G19  19840042.898    19840046.598                   104260116.722    81241678.318                          48.900          43.400                  
G06  20705740.227                    20705749.719   108809423.107                    84786584.446          48.300                          47.600  
G09  22499196.406                    22499207.141   118234143.693                    92130490.401          41.700                          44.900  
G04  22926135.727                    22926145.613   120477683.672                    93878732.337          41.800                          44.800  
G12  23109284.914                    23109293.109   121440131.212                    94628691.081          41.400                          41.500  
R01  22157890.852    22157888.867                                   118446610.307   118446593.299                                          42.400          40.500                                  
R02  20156079.367    20156077.695    20156086.344    20156086.453   107556729.266   107556718.251    83655233.333    83655240.344          51.100          48.500          47.700          48.200  
R18  20623906.180    20623904.871    20623912.598    20623911.934   110091828.932   110091805.933    85626967.174    85626977.179          49.200          47.200          47.500          47.800  
R17  19870584.250    19870583.199    19870591.121    19870590.957   106331502.513   106331491.538    82702309.916    82702308.920          50.600          49.200          49.100          49.600  
R16  21933381.961    21933381.855    21933390.488    21933390.223   117164182.789   117164140.796    91127651.848    91127658.831          46.800          45.800          45.100          45.200  
R24  23071202.047    23071201.465    23071213.746    23071213.137   123372030.836   123372077.854    95956080.079    95956056.091          45.500          44.200          43.500          43.800  
R03  21823404.508    21823404.074    21823415.324    21823415.605   116822468.398   116822393.390    90861894.757    90861905.762          45.600          44.500          46.100          46.000  
E03  26247123.930    26247135.000    26247133.219    26247135.051   137929599.836   102999389.521   105686323.397   104342877.065          42.600          43.700          44.800          50.100  
E13  25321592.789    25321601.410    25321599.441    25321601.668   133065895.716    99367386.118   101959572.383   100663490.855          44.700          46.300          47.700          53.000  
E30  27700672.320    27700689.746    27700686.605    27700689.336   145567949.026   108703361.963   111539109.400   110121248.291          41.900          39.400          40.900          45.500  
E15  23590203.977    23590210.973    23590209.281    23590211.496   123967358.873    92573007.246    94987955.682    93780485.072          48.800          48.300          49.200          55.400  
E21  25945629.445    25945638.234    25945635.844    25945637.859   136345217.979   101816229.422   104472304.789   103144285.713          43.600          44.600          46.300          51.100  
E05  25281687.500    25281697.148    25281695.414    25281697.566   132856168.077    99210793.349   101798888.587   100504849.573          43.700          41.500          44.400          48.600  
E27  24998613.586    24998621.848    24998619.738    24998622.305   131368584.616    98099914.248   100659023.836    99379474.150          47.000          46.000          47.600          53.100  
C04  38517126.836    38517126.195   200568832.015   155092503.587          36.000          40.400  
C03  37505953.375    37505953.531   195303375.478   151020926.033          38.900          42.000  
C02  38974984.492    38974984.105   202953023.282   156936108.002          34.600          40.100  
C30  22740769.359                   118417137.822                          47.000                  
C29  21773742.117                   113381585.942                          49.600                  
C20  22985259.977                   119690330.961                          48.200                  
C13  38419306.430    38419313.379   200059453.783   154698663.539          41.700          39.900  
> 2025 04 10 07 21 30.0000000  0 30
G17  21548537.461                    21548545.262   113238318.302                    88237685.368          45.700                          45.500  
G11  22288226.992                    22288234.680   117125486.771                    91266595.149          45.100                          46.400  
G20  23330990.492    23331000.301                   122605292.293    95536550.150                          41.300          26.700                  
G22  23626228.766    23626239.230                   124156615.668    96745485.323                          41.600          23.800                  
G19  19839251.633    19839254.980                   104255956.472    81238436.561                          50.000          43.400                  
G06  20703956.398                    20703966.109   108800050.156                    84779280.836          48.400                          48.500  
G09  22495793.344                    22495804.320   118216261.347                    92116556.116          42.500                          45.700  
G04  22924307.609                    22924317.699   120468076.838                    93871246.493          41.600                          45.300  
G12  23106608.156                    23106616.219   121426060.526                    94617726.965          40.400                          42.000  
R01  22159447.508    22159446.695                                   118454935.184   118454918.184                                          42.400          40.800                                  
R02  20154113.484    20154111.695    20154120.156    20154119.984   107546238.147   107546227.142    83647073.590    83647080.594          50.600          49.000          48.000          49.000  
R18  20620767.883    20620766.691    20620774.750    20620774.348   110075079.044   110075056.037    85613939.491    85613949.488          48.800          47.000          46.500          47.200  
R17  19869828.320    19869827.621    19869835.762    19869835.555   106327459.743   106327448.762    82699165.537    82699164.540          50.800          48.900          48.300          49.500  
R16  21933768.406    21933765.484    21933775.523    21933775.945   117166241.183   117166199.195    91129252.803    91129259.800          47.100          44.300          44.900          45.800  
R24  23072521.336    23072520.988    23072532.969    23072532.539   123379085.388   123379132.398    95961566.932    95961542.921          45.200          44.100          42.300          42.800  
R03  21818273.164    21818273.199    21818283.902    21818284.066   116794999.600   116794924.601    90840530.183    90840541.193          45.500          44.600          46.500          45.700  
E03  26243746.094    26243756.871    26243755.371    26243757.309   137911849.031   102986134.084   105672722.168   104329448.734          42.600          44.100          46.400          50.800  
E13  25318753.406    25318762.930    25318760.633    25318762.891   133050977.171    99356245.645   101948141.279   100652205.069          45.000          46.300          47.500          52.600  
E30  27702361.414    27702379.566    27702376.613    27702379.188   145576827.904   108709992.183   111545912.604   110127965.002          40.600          39.100          39.800          45.200  
E15  23589229.922    23589236.957    23589234.754    23589237.160   123962238.611    92569183.688    94984032.379    93776611.638          49.000          48.800          49.400          55.600  
E21  25943487.492    25943496.348    25943493.676    25943495.867   136333961.573   101807823.674   104463679.760   103135770.322          43.600          44.700          45.300          50.500  
E05  25280428.922    25280438.473    25280437.254    25280438.656   132849554.121    99205854.369   101793820.759   100499846.168          42.900          41.800          43.500          48.400  
E27  24999063.023    24999070.906    24999068.703    24999071.492   131370944.861    98101676.755   100660832.324    99381259.647          47.400          46.200          48.000          52.900  
C04  38515759.820    38515759.277   200561714.973   155087000.243          36.500          41.400  
C03  37504604.656    37504604.551   195296351.420   151015494.596          38.400          41.300  
C02  38973609.188    38973608.551   202945860.166   156930569.007          34.800          40.400  
C30  22741050.648                   118418604.481                          47.200                  
C29  21771442.750                   113369615.602                          49.000                  
C20  22981807.836                   119672353.782                          47.800                  
C13  38417096.359    38417103.418   200047943.916   154689763.386          41.200          40.500  
> 2025 04 10 07 21 35.0000000  0 30
G17  21549168.016                    21549175.406   113241629.882                    88240265.812          46.400                          45.000  
G11  22284923.305                    22284931.176   117108126.103                    91253067.359          43.500                          47.200  
G20  23326668.781    23326678.203                   122582579.722    95518852.098                          40.900          26.700                  
G22  23628017.289    23628029.129                   124166021.090    96752814.146                          39.700          23.500                  
G19  19838462.070    19838466.270                   104251810.128    81235205.653                          49.400          42.600                  
G06  20702174.680                    20702184.238   108790684.008                    84771982.538          48.500                          48.100  
G09  22492392.883                    22492403.078   118198389.627                    92102630.115          42.900                          44.500  
G04  22922482.203                    22922491.934   120458484.793                    93863772.163          41.600                          44.000  
G12  23103933.039                    23103940.797   121412005.362                    94606774.851          41.800                          41.700  
R01  22161008.625    22161006.992                                   118463274.939   118463257.956                                          43.500          41.400                                  
R02  20152151.180    20152149.742    20152158.305    20152158.141   107535769.330   107535758.324    83638931.155    83638938.158          50.600          48.300          47.500          48.800  
R18  20617630.867    20617629.793    20617638.273    20617637.586   110058333.707   110058310.701    85600915.355    85600925.366          48.900          46.800          47.000          48.500  
R17  19869074.766    19869073.480    19869081.746    19869081.313   106323425.162   106323414.158    82696027.543    82696026.539          50.300          48.800          49.100          50.100  
R16  21934156.531    21934154.785    21934164.410    21934164.820   117168317.665   117168275.634    91130867.837    91130874.849          47.800          45.800          45.600          46.700  
R24  23073841.406    23073841.645    23073853.348    23073852.883   123386143.453   123386190.446    95967056.523    95967032.523          46.200          44.300          43.000          43.700  
R03  21813143.938    21813143.855    21813154.621    21813154.285   116767538.958   116767463.971    90819171.963    90819182.966          45.000          43.800          45.100          45.700  
E03  26240369.766    26240380.004    26240378.504    26240380.566   137894104.638   102972883.434   105659125.851   104316025.251          42.600          43.200          45.100          49.900  
E13  25315915.047    25315923.852    25315921.930    25315924.289   133036061.144    99345107.071   101936712.131   100640921.209          44.800          46.300          48.200          53.000  
E30  27704050.867    27704069.621    27704066.246    27704069.039   145585706.625   108716622.253   111552715.651   110134681.564          41.400          39.300          41.200          46.100  
E15  23588256.016    23588263.117    23588261.102    23588263.441   123957121.661    92565362.581    94980111.592    93772740.693          49.100          48.500          49.300          55.600  
E21  25941348.063    25941355.879    25941353.770    25941355.922   136322716.261   101799426.210   104455063.230   103127263.331          44.700          44.500          46.000          50.900  
E05  25279172.711    25279182.574    25279181.211    25279182.598   132842951.557    99200923.861   101788761.661   100494851.367          42.800          42.300          44.000          48.900  
E27  24999513.359    24999521.797    24999519.875    24999522.238   131373314.104    98103445.978   100662647.707    99383051.950          46.200          47.900          48.800          54.100  
C04  38514393.133    38514392.121   200554597.632   155081496.646          36.600          40.100  
C03  37503256.180    37503255.707   195289326.960   151010062.838          38.800          41.700  
C02  38972232.969    38972233.188   202938696.453   156925029.646          34.300          40.100  
C30  22741333.727                   118420077.148                          47.000                  
C29  21769145.125                   113357651.266                          49.200                  
C20  22978357.383                   119654387.136                          47.500                  
C13  38414886.000    38414893.332   200036436.478   154680865.132          41.500          40.300  
> 2025 04 10 07 21 40.0000000  0 30
G17  21549800.383                    21549807.551   113244951.860                    88242854.350          46.500                          45.500  
G11  22281620.594                    22281628.809   117090771.247                    91239544.095          43.500                          47.900  
G20  23322348.805    23322357.992                   122559873.825    95501159.224                          40.600          26.700                  
G22  23629808.828    23629819.297                   124175430.609    96760146.158                          40.400          22.200                  
G19  19837675.922    19837679.930                   104247679.038    81231986.604                          48.900          42.800                  
G06  20700393.602                    20700403.172   108781325.898                    84764690.513          47.900                          48.200  
G09  22488994.117                    22489004.684   118180529.929                    92088713.470          42.900                          45.700  
G04  22920659.070                    22920670.074   120448908.714                    93856310.291          40.600                          44.500  
G12  23101262.305                    23101270.355   121397967.138                    94595836.002          42.200                          41.600  
R01  22162571.422    22162569.672                                   118471630.896   118471613.912                                          43.600          42.000                                  
R02  20150193.656    20150192.688    20150200.867    20150201.063   107525324.168   107525313.176    83630807.167    83630814.178          50.800          49.400          47.700          48.300  
R18  20614494.828    20614493.871    20614501.793    20614501.043   110041594.101   110041571.109    85587895.674    85587905.679          48.600          46.800          46.800          47.300  
R17  19868322.992    19868321.707    19868329.672    19868329.637   106319399.967   106319388.962    82692896.826    82692895.829          50.500          49.600          48.300          49.100  
R16  21934547.445    21934547.691    21934556.492    21934556.809   117170413.374   117170371.350    91132497.828    91132504.840          46.400          45.700          44.500          47.000  
R24  23075161.156    23075160.809    23075173.594    23075173.188   123393206.497   123393253.473    95972549.945    95972525.957          43.700          42.600          40.700          40.600  
R03  21808015.484    21808015.168    21808026.082    21808026.332   116740087.720   116740012.727    90797821.017    90797832.020          45.400          43.900          46.000          47.100  
E03  26236994.453    26237004.406    26237002.766    26237005.117   137876367.861   102959638.455   105645535.343   104302607.501          43.300          44.100          45.000          50.100  
E13  25313077.219    25313086.098    25313084.453    25313086.672   133021148.850    99333971.263   101925285.828   100629640.154          44.700          46.400          47.700          52.900  
E30  27705741.570    27705759.223    27705756.219    27705758.848   145594586.485   108723253.225   111559519.608   110141399.029          40.700          39.400          41.600          46.300  
E15  23587282.883    23587290.172    23587288.156    23587290.613   123952009.283    92561544.898    94976194.322    93768873.218          49.000          47.900          49.000          55.500  
E21  25939210.586    25939218.605    25939216.215    25939218.391   136311483.290   101791037.966   104446456.166   103118765.674          44.400          43.800          45.600          50.400  
E05  25277917.844    25277928.402    25277927.137    25277928.301   132836361.618    99196002.830   101783712.224   100489866.133          42.600          42.100          43.800          48.800  
E27  24999966.219    24999974.434    24999973.215    24999975.195   131375693.551    98105222.823   100664470.907    99384851.974          46.200          47.800          48.700          54.200  
C04  38513025.570    38513025.941   200547481.126   155075993.726          36.100          40.900  
C03  37501906.719    37501906.832   195282303.322   151004631.717          38.700          42.600  
C02  38970857.766    38970857.473   202931533.551   156919490.866          34.700          39.200  
C30  22741617.852                   118421557.110                          47.500                  
C29  21766848.953                   113345694.159                          48.800                  
C20  22974909.453                   119636432.296                          48.100                  
C13  38412676.977    38412684.516   200024932.698   154671969.673          40.800          40.800  
> 2025 04 10 07 21 45.0000000  0 30
G17  21550433.984                    21550441.215   113248283.343                    88245450.276          46.400                          45.500  
G11  22278318.969                    22278326.816   117073421.243                    91226024.647          43.800                          47.300  
