     3.04           OBSERVATION DATA    M (MIXED)           RINEX VERSION / TYPE
BLANK OR G = GPS, R = GLONASS, C = BDS, E = GAL, J = QZSS, M = MIXEDCOMMENT             
HGO                 HITARGET            20250511 081820 UTC PGM / RUN BY / DATE 
3333                                                        MARKER NAME         
                                                            MARKER NUMBER       
whoever             HITARGET                                OBSERVER / AGENCY   
10020541            iRTK2                                   REC # / TYPE / VERS 
1                   HITIRTK2-2                              ANT # / TYPE        
 -2623864.5572  3976998.0927  4226091.6081                  APPROX POSITION XYZ 
------------------------------------------------------------COMMENT             
*** Antenna height is from mark to ANTENNA Phase Center.    COMMENT             
------------------------------------------------------------COMMENT             
        1.5097        0.0000        0.0000                  ANTENNA: DELTA H/E/N
G    9 C1C C2W C2X L1C L2W L2X S1C S2W S2X                  SYS / # / OBS TYPES 
R   12 C1C C1P C2P C2C L1C L1P L2P L2C S1C S1P S2P S2C      SYS / # / OBS TYPES 
E   12 C1X C5X C7X C8X L1X L5X L7X L8X S1X S5X S7X S8X      SYS / # / OBS TYPES 
C    6 C2I C7I L2I L7I S2I S7I                              SYS / # / OBS TYPES 
     5.000                                                  INTERVAL            
  2025     4    10     6    33   30.0000000     GPS         TIME OF FIRST OBS   
  2025     4    10     7    40   50.0000000     GPS         TIME OF LAST OBS    
     0                                                      RCV CLOCK OFFS APPL 
    18                                                      LEAP SECONDS        
                                                            END OF HEADER       
> 2025 04 10 06 33 30.0000000  0 32
G11  23464944.063                    23464953.211   123309114.637                    96085057.779          41.000                          43.500  
G17  20621716.750                    20621722.957   108367848.235                    84442502.274          47.000                          47.000  
G22  21900216.758    21900224.070                   115086410.771    89677747.794                          45.100          34.000                  
G03  22195925.195                    22195934.566   116640366.832                    90888637.346          42.200                          43.700  
G06  21087237.133                    21087246.637   110814179.213                    86348752.168          47.500                          47.500  
G19  19846587.602    19846591.113                   104294519.956    81268471.316                          47.200          41.700                  
G04  23532336.109                    23532348.418   123663269.128                    96361043.949          38.600                          42.400  
G14  22771472.039                    22771482.777   119664882.433                    93245384.071          41.700                          44.000  
G12  24224937.445                    24224947.328   127302914.729                    99197107.219          36.200                          35.400  
G09  23847253.773                    23847269.953   125318202.949                    97650588.026          40.900                          42.400  
R01  20954601.148    20954600.922                                   112014524.008   112014339.004                                          45.300          43.200                                  
R02  21060913.367    21060911.695    21060921.438    21060921.355   112385074.853   112385061.840    87410602.594    87410608.598          47.200          45.800          46.100          45.700  
R18  21683056.477    21683055.637    21683064.922    21683064.250   115745631.959   115745624.979    90024376.813    90024381.809          44.200          42.000          45.900          46.200  
R15  21361429.305    21361429.891    21361439.832    21361439.844   114148846.883   114148989.891    88782541.717    88782546.727          45.600          44.100          45.400          45.800  
R16  21475256.500    21475255.223    21475262.586    21475262.727   114717123.151   114716946.149    89224288.974    89224294.962          47.000          44.700          46.200          47.300  
R17  19678446.398    19678444.406    19678451.863    19678451.738   105303331.327   105303323.319    81902586.910    81902590.912          50.800          49.600          49.200          49.800  
R24  21563953.391    21563951.750    21563960.344    21563959.586   115312155.419   115312124.429    89687208.398    89687214.395          47.200          44.800          45.000          45.300  
E13  26174791.805    26174802.137    26174799.934    26174802.621   137549462.039   102715493.038   105395027.192   104055249.224          42.600          43.200          45.500          50.200  
E15  23403862.750    23403871.016    23403869.094    23403871.504   122988129.536    91841812.089    94237676.730    93039769.018          48.400          48.800          50.300          55.400  
E21  26635289.531    26635298.934    26635296.543    26635298.387   139969388.858   104522631.500   107249297.971   105885973.347          42.100          42.600          43.100          48.200  
E27  24194262.195    24194270.289    24194268.133    24194270.629   127141703.853    94943464.366    97420250.817    96181851.199          47.700          48.200          49.300          54.900  
E30  25912772.523    25912783.785    25912781.770    25912783.895   136172531.920   101687312.193   104340013.272   103013677.845          44.900          45.400          46.800          52.000  
E05  25488274.055    25488287.641    25488284.449    25488286.777   133941791.477   100021465.667   102630721.619   101326072.251          41.100          44.200          43.300          49.400  
C20  24384755.883                   126977834.292                          43.000                  
C13  38905302.773    38905312.461   202590125.391   156655520.146          40.500          40.600  
C04  38428315.547    38428316.484   200106331.448   154734904.987          35.800          41.800  
C03  37405154.102    37405154.551   194778452.159   150615053.123          39.200          41.800  
C02  38885960.508    38885962.543   202489494.391   156577654.706          34.800          41.100  
C01  37960455.211    37960456.805   197670050.346   152851024.181          38.700          41.800  
C30  21905838.109                   114069444.839                          49.000                  
C29  22397330.711                   116628776.641                          47.700                  
C27  25345009.117                   131978102.641                          41.100                  
> 2025 04 10 06 33 35.0000000  0 32
G11  23461792.648                    23461801.898   123292556.888                    96072155.663          41.900                          43.200  
G17  20621922.406                    20621928.430   108368928.531                    84443344.057          47.300                          47.000  
G22  21901913.695    21901920.402                   115095328.645    89684696.769                          45.200          34.000                  
G03  22198070.273                    22198080.426   116651642.336                    90897423.444          41.700                          43.700  
G06  21085299.148                    21085308.977   110803995.173                    86340816.552          47.000                          47.500  
G19  19845028.758    19845032.527                   104286329.125    81262088.845                          47.200          42.400                  
G04  23529772.125                    23529783.508   123649792.287                    96350542.588          39.000                          41.100  
G14  22774195.609                    22774206.422   119679195.220                    93256536.835          41.700                          43.600  
G12  24221462.242                    24221469.289   127284638.149                    99182865.716          37.600                          35.500  
G09  23843731.406                    23843747.934   125299693.615                    97636165.296          42.300                          41.100  
R01  20954715.000    20954714.422                                   112015133.235   112014948.240                                          44.300          43.400                                  
R02  21057483.906    21057482.703    21057491.895    21057492.324   112366773.442   112366760.444    87396368.203    87396374.207          47.800          45.500          46.000          46.400  
R18  21680151.500    21680150.777    21680160.418    21680159.922   115730125.285   115730118.304    90012316.070    90012321.073          43.300          42.300          46.100          46.400  
R15  21363626.875    21363626.051    21363635.895    21363635.676   114160582.155   114160725.142    88791669.116    88791674.135          45.200          44.100          45.400          45.800  
R16  21474012.906    21474011.629    21474019.598    21474019.883   114710480.973   114710303.993    89219122.825    89219128.821          47.500          44.700          47.300          47.700  
R17  19677506.508    19677505.340    19677512.348    19677511.805   105298304.044   105298296.043    81898676.823    81898680.827          51.200          49.400          49.700          50.100  
R24  21565485.852    21565484.566    21565492.926    21565493.031   115320352.847   115320321.863    89693584.169    89693590.179          46.400          44.700          45.500          46.200  
E13  26172266.914    26172277.656    26172275.219    26172278.324   137536196.047   102705586.633   105384862.354   104045213.602          42.300          43.700          45.200          50.100  
E15  23403074.719    23403082.785    23403080.910    23403083.176   122983987.001    91838718.637    94234502.570    93036635.214          48.500          48.900          50.200          55.400  
E21  26632707.523    26632716.770    26632714.047    26632716.250   139955819.226   104512498.319   107238900.448   105875707.991          42.100          42.200          43.000          48.000  
E27  24194180.492    24194188.262    24194186.293    24194188.688   127141274.542    94943143.775    97419921.856    96181526.423          47.700          48.000          49.400          54.900  
E30  25914827.320    25914838.879    25914836.676    25914838.871   136183330.590   101695376.119   104348287.555   103021846.942          44.400          45.300          47.000          51.800  
E05  25486467.258    25486479.902    25486477.418    25486479.547   133932294.213   100014373.560   102623444.496   101318887.636          41.400          42.900          44.500          49.300  
C20  24381063.734                   126958607.896                          43.800                  
C13  38903439.211    38903448.371   202580420.924   156648016.050          41.100          40.800  
C04  38427604.117    38427604.805   200102625.754   154732039.524          35.900          41.100  
C03  37404466.313    37404466.754   194774870.040   150612283.198          39.200          42.300  
C02  38885258.891    38885260.148   202485839.216   156574828.273          34.100          42.000  
C01  37959774.227    37959775.996   197666505.805   152848283.311          38.300          42.100  
C30  21906080.633                   114070705.880                          49.100                  
C29  22395114.930                   116617240.922                          47.600                  
C27  25346756.922                   131987205.045                          40.000                  
> 2025 04 10 06 33 40.0000000  0 32
G11  23458644.273                    23458653.156   123276009.465                    96059261.585          42.600                          43.400  
G17  20622131.250                    20622137.016   108370024.668                    84444198.191          47.100                          46.900  
G22  21903614.063    21903620.680                   115104262.780    89691658.424                          45.300          33.400                  
G03  22200219.359                    22200229.434   116662933.854                    90906222.003          41.800                          43.900  
G06  21083363.961                    21083373.324   110793824.924                    86332891.693          47.000                          47.600  
G19  19843473.664    19843477.441                   104278155.637    81255719.888                          47.400          41.300                  
G04  23527210.164                    23527222.082   123636331.268                    96340053.457          38.400                          41.300  
G14  22776921.094                    22776931.961   119693519.011                    93267698.201          42.000                          43.400  
G12  24217985.648                    24217994.023   127266377.892                    99168636.985          37.600                          35.500  
G09  23840211.313                    23840227.023   125281193.341                    97621749.633          40.400                          40.900  
R01  20954835.813    20954833.945                                   112015771.224   112015586.258                                          45.900          43.700                                  
R02  21054058.656    21054056.281    21054065.363    21054066.223   112348493.646   112348480.634    87382150.599    87382156.603          48.100          45.800          45.600          45.500  
R18  21677249.773    21677247.762    21677257.270    21677256.719   115714628.201   115714621.199    90000262.781    90000267.792          43.800          42.000          46.100          45.700  
R15  21365827.500    21365827.027    21365835.746    21365835.895   114172337.717   114172480.739    88800812.305    88800817.309          46.400          44.700          45.900          46.700  
R16  21472773.867    21472773.293    21472781.465    21472781.520   114703867.218   114703690.201    89213978.791    89213984.801          45.300          45.300          46.300          47.500  
R17  19676568.766    19676567.008    19676574.512    19676573.988   105293290.259   105293282.265    81894777.212    81894781.217          51.000          49.200          49.200          50.200  
R24  21567019.484    21567019.488    21567028.379    21567028.273   115328560.832   115328529.833    89699968.148    89699974.159          45.300          43.800          45.800          46.200  
E13  26169744.625    26169754.688    26169752.203    26169755.438   137522939.549   102695687.314   105374704.780   104035185.156          43.000          43.300          45.200          50.100  
E15  23402288.422    23402296.496    23402294.809    23402296.969   122979855.606    91835633.505    94231336.959    93033509.837          48.400          48.300          50.400          55.400  
E21  26630127.586    26630137.008    26630134.664    26630136.766   139942263.964   104502375.883   107228513.952   105865453.521          41.900          41.700          42.900          47.700  
E27  24194102.461    24194110.457    24194108.207    24194110.641   127140863.166    94942836.569    97419606.646    96181215.214          47.200          48.000          49.500          54.900  
E30  25916884.773    25916895.523    25916893.555    25916895.777   136194140.440   101703448.388   104356570.412   103030024.508          43.900          44.900          46.900          51.900  
E05  25484663.602    25484675.273    25484673.066    25484675.117   133922812.854   100007293.349   102616179.582   101311715.073          41.600          42.700          44.100          49.400  
C20  24377373.617                   126939392.652                          43.200                  
C13  38901577.922    38901586.426   202570725.188   156640518.705          40.600          41.000  
C04  38426893.266    38426894.320   200098926.212   154729178.806          35.900          40.900  
C03  37403779.180    37403779.996   194771293.964   150609517.951          39.200          42.300  
C02  38884557.859    38884559.387   202482189.874   156572006.385          34.100          41.700  
C01  37959095.070    37959096.332   197662967.352   152845547.164          38.300          42.900  
C30  21906324.734                   114071979.113                          48.800                  
C29  22392901.391                   116605715.419                          46.600                  
C27  25348506.336                   131996315.684                          40.300                  
> 2025 04 10 06 33 45.0000000  0 32
G11  23455497.023                    23455506.324   123259472.462                    96046375.632          42.200                          43.700  
G17  20622342.523                    20622349.020   108371136.718                    84445064.717          47.400                          47.100  
G22  21905317.461    21905323.969                   115113213.240    89698632.788                          46.200          34.100                  
G03  22202370.508                    22202380.949   116674241.447                    90915033.105          41.500                          43.900  
G06  21081431.586                    21081440.813   110783668.466                    86324977.572          47.500                          47.700  
G19  19841921.945    19841925.176                   104269999.568    81249364.512                          47.500          42.000                  
G04  23524651.852                    23524663.332   123622886.017                    96329576.734          37.300                          40.300  
G14  22779648.516                    22779660.215   119707853.852                    93278868.153          41.100                          43.900  
G12  24214515.023                    24214523.277   127248133.770                    99154420.761          38.100                          36.500  
G09  23836692.414                    23836708.672   125262702.294                    97607341.122          40.300                          44.300  
R01  20954960.563    20954958.695                                   112016437.837   112016252.855                                          44.600          43.400                                  
R02  21050637.102    21050635.898    21050644.516    21050644.863   112330235.353   112330222.361    87367949.714    87367955.718          47.900          46.800          45.600          46.000  
R18  21674348.633    21674345.680    21674355.453    21674355.176   115699140.667   115699133.673    89988216.939    89988221.950          44.600          42.400          46.100          46.300  
R15  21368031.328    21368031.563    21368039.910    21368039.453   114184113.627   114184256.642    88809971.335    88809976.323          47.200          45.500          45.600          46.700  
R16  21471541.102    21471541.230    21471549.066    21471549.168   114697282.052   114697105.049    89208856.988    89208862.985          45.400          44.900          46.800          47.700  
R17  19675634.953    19675633.313    19675640.688    19675640.301   105288290.080   105288282.100    81890888.188    81890892.191          51.400          49.800          49.700          50.400  
R24  21568556.367    21568555.668    21568565.383    21568564.395   115336779.367   115336748.368    89706360.324    89706366.327          46.300          44.300          45.300          45.500  
E13  26167223.648    26167233.992    26167230.945    26167234.668   137509692.601   102685795.116   105364554.528   104025163.935          41.900          43.800          45.200          50.200  
E15  23401504.398    23401512.457    23401510.629    23401512.832   122975735.411    91832556.732    94228179.926    93030392.942          47.400          48.300          50.300          55.500  
E21  26627551.023    26627560.102    26627557.707    26627559.797   139928723.038   104492264.175   107218138.447   105855209.922          42.100          41.800          42.600          47.700  
E27  24194027.336    24194035.301    24194033.238    24194035.555   127140469.774    94942542.797    97419305.207    96180917.606          47.400          48.100          49.500          54.900  
E30  25918944.109    25918955.027    25918952.727    25918955.109   136204961.451   101711528.993   104364861.814   103038210.516          43.900          45.300          47.200          52.100  
E05  25482861.109    25482874.215    25482871.543    25482873.934   133913347.352   100000225.000   102608926.829   101304554.522          40.400          42.200          43.500          48.300  
C20  24373685.953                   126920188.526                          44.200                  
C13  38899717.156    38899726.797   202561038.283   156633028.186          41.600          41.000  
C04  38426184.234    38426184.988   200095232.761   154726322.785          35.800          40.600  
C03  37403094.102    37403094.508   194767723.944   150606757.399          39.600          42.300  
C02  38883858.781    38883859.738   202478546.596   156569189.174          34.300          41.300  
C01  37958416.711    37958418.039   197659434.970   152842815.704          38.800          43.100  
C30  21906571.367                   114073264.588                          49.500                  
C29  22390690.188                   116594200.197                          46.500                  
C27  25350257.906                   132005434.527                          40.200                  
> 2025 04 10 06 33 50.0000000  0 32
G11  23452353.211                    23452361.262   123242946.508                    96033498.273          42.300                          44.300  
G17  20622557.422                    20622564.203   108372265.257                    84445944.103          47.100                          47.300  
G22  21907023.414    21907030.434                   115122180.589    89705620.335                          45.800          33.400                  
G03  22204526.250                    22204536.043   116685565.606                    90923857.104          42.800                          43.900  
G06  21079500.945                    21079510.773   110773526.454                    86317074.708          47.000                          47.600  
G19  19840373.039    19840376.516                   104261861.503    81243023.169                          47.500          41.800                  
G04  23522095.875                    23522108.152   123609457.248                    96319112.780          37.000                          39.900  
G14  22782379.172                    22782390.070   119722200.297                    93290047.168          41.100                          43.700  
G12  24211045.352                    24211054.719   127229906.582                    99140217.781          36.900                          36.800  
G09  23833175.195                    23833191.449   125244220.898                    97592940.135          40.200                          42.000  
R01  20955090.063    20955089.484                                   112017133.872   112016948.892                                          44.700          43.200                                  
R02  21047219.563    21047218.125    21047227.207    21047227.723   112311999.320   112311986.315    87353766.158    87353772.154          47.600          45.900          46.100          46.500  
R18  21671447.703    21671447.098    21671455.980    21671455.051   115683663.352   115683656.364    89976179.052    89976184.055          43.700          42.700          46.200          46.700  
R15  21370238.563    21370238.914    21370247.309    21370247.203   114195910.604   114196053.619    88819146.738    88819151.734          47.000          45.900          46.000          47.100  
R16  21470314.398    21470313.004    21470321.844    21470321.629   114690726.100   114690549.097    89203757.912    89203763.908          47.000          45.400          46.400          47.300  
R17  19674703.328    19674701.688    19674709.246    19674708.633   105283304.087   105283296.072    81887010.185    81887014.187          51.000          49.500          49.800          49.900  
R24  21570095.703    21570095.004    21570104.473    21570104.035   115345009.012   115344978.043    89712761.136    89712767.139          45.000          43.400          45.600          46.100  
E13  26164704.305    26164714.977    26164712.633    26164715.832   137496455.759   102675910.463   105354412.020   104015150.353          41.000          44.000          45.500          50.400  
E15  23400722.836    23400730.762    23400728.699    23400730.945   122971626.984    91829488.754    94225031.913    93027284.940          48.400          48.600          50.500          55.300  
E21  26624977.570    26624986.148    26624984.367    26624986.109   139915197.207   104482163.704   107207774.489   105844977.701          41.600          41.200          43.300          47.700  
E27  24193956.094    24193964.117    24193962.055    24193964.309   127140095.006    94942262.938    97419018.040    96180634.100          47.900          47.800          49.300          54.700  
E30  25921005.992    25921016.355    25921013.824    25921016.602   136215794.243   101719618.412   104373162.261   103046405.448          44.300          44.800          46.200          51.400  
E05  25481063.281    25481075.984    25481073.922    25481075.820   133903898.313    99993168.972   102601686.730   101297406.455          39.800          39.700          42.700          46.800  
C20  24370000.258                   126900996.221                          44.300                  
C13  38897858.906    38897867.742   202551360.750   156625544.915          41.100          39.900  
C04  38425476.383    38425476.863   200091546.066   154723471.994          35.900          41.300  
C03  37402410.281    37402409.992   194764160.624   150604002.025          39.400          42.100  
C02  38883159.742    38883161.043   202474909.815   156566376.993          35.000          40.900  
C01  37957739.195    37957740.898   197655909.271   152840089.415          38.700          42.300  
C30  21906821.141                   114074562.889                          48.900                  
C29  22388481.289                   116582695.828                          47.000                  
C27  25352010.484                   132014562.210                          40.000                  
> 2025 04 10 06 33 55.0000000  0 32
G11  23449209.391                    23449217.938   123226430.635                    96020628.764          42.200                          44.100  
G17  20622775.195                    20622781.488   108373409.314                    84446835.564          47.000                          47.800  
G22  21908733.172    21908740.047                   115131163.853    89712620.264                          45.000          33.600                  
G03  22206684.266                    22206693.820   116696905.407                    90932693.312          42.600                          43.700  
G06  21077574.453                    21077583.527   110763397.862                    86309182.320          47.300                          47.500  
G19  19838827.852    19838831.047                   104253740.459    81236695.084                          47.400          41.700                  
G04  23519543.805                    23519555.512   123596043.908                    96308660.857          37.200                          39.800  
G14  22785110.859                    22785122.367   119736557.382                    93301234.433          41.700                          44.400  
G12  24207580.453                    24207588.480   127211695.249                    99126027.145          36.900                          35.800  
G09  23829659.766                    23829676.316   125225748.366                    97578546.064          38.800                          41.800  
R01  20955225.180    20955224.484                                   112017858.198   112017673.209                                          44.500          42.800                                  
R02  21043805.930    21043804.961    21043814.781    21043814.852   112293784.576   112293771.570    87339599.166    87339605.170          47.700          46.300          44.900          46.400  
R18  21668550.516    21668549.910    21668558.375    21668557.805   115668195.286   115668188.292    89964148.329    89964153.332          43.800          42.800          46.000          46.600  
R15  21372451.242    21372450.418    21372459.496    21372458.801   114207727.469   114207870.479    88828337.611    88828342.614          48.500          45.900          45.300          45.300  
R16  21469091.336    21469090.645    21469098.910    21469099.129   114684198.141   114684021.161    89198680.606    89198686.608          45.100          43.700          46.300          46.900  
R17  19673773.367    19673772.434    19673779.840    19673779.195   105278331.295   105278323.311    81883142.460    81883146.464          50.800          49.300          49.500          50.200  
R24  21571636.297    21571636.535    21571645.039    21571644.664   115353248.805   115353217.822    89719169.854    89719175.863          44.900          44.100          46.300          46.000  
E13  26162187.023    26162198.008    26162195.664    26162198.645   137483228.084   102666032.658   105344276.536   104005143.706          41.100          44.600          45.600          51.200  
E15  23399943.063    23399950.980    23399948.918    23399951.258   122967529.367    91826428.845    94221892.181    93024185.119          48.800          47.700          49.200          55.400  
E21  26622406.148    26622414.465    26622413.430    26622414.836   139901685.390   104472073.714   107197421.299   105834756.110          42.900          41.600          43.600          48.700  
E27  24193887.984    24193896.117    24193894.102    24193896.391   127139737.828    94941996.204    97418744.358    96180363.892          47.600          48.000          48.200          55.300  
E30  25923069.305    25923079.691    25923077.582    25923079.930   136226637.849   101727715.882   104381470.975   103054608.536          44.400          44.400          46.000          51.800  
E05  25479268.328    25479280.844    25479278.594    25479280.551   133894464.886    99986124.556   102594458.543   101290270.157          39.500          39.900          41.500          46.300  
C20  24366316.734                   126881814.734                          42.200                  
C13  38896001.813    38896011.504   202541691.600   156618068.135          39.000          39.200  
C04  38424769.594    38424769.922   200087865.093   154720625.620          36.100          40.800  
C03  37401726.734    37401726.824   194760603.016   150601251.037          39.500          41.800  
C02  38882462.547    38882462.883   202471277.611   156563569.076          33.600          37.900  
C01  37957063.516    37957065.145   197652389.288   152837367.537          38.100          41.100  
C30  21907072.703                   114075873.062                          48.900                  
C29  22386273.781                   116571201.372                          47.000                  
C27  25353764.156                   132023697.742                          38.900                  
> 2025 04 10 06 34  0.0000000  0 32
G11  23446068.852                    23446077.387   123209925.870                    96007767.935          42.500                          44.200  
G17  20622995.969                    20623001.863   108374570.055                    84447740.028          47.300                          47.000  
G22  21910446.148    21910452.414                   115140164.199    89719633.510                          45.600          33.100                  
G03  22208844.820                    22208854.938   116708262.017                    90941542.604          42.300                          43.700  
G06  21075649.867                    21075659.207   110753283.888                    86301301.280          47.600                          47.800  
G19  19837286.000    19837289.543                   104245637.664    81230381.209                          47.900          41.400                  
G04  23516993.906                    23517005.797   123582647.250                    96298221.938          37.700                          39.700  
G14  22787845.055                    22787856.449   119750926.207                    93312430.916          41.600                          43.600  
G12  24204118.828                    24204127.078   127193500.960                    99111849.832          33.900                          34.800  
G09  23826146.820                    23826163.102   125207285.766                    97564159.703          39.200                          40.700  
R01  20955367.016    20955364.914                                   112018612.103   112018427.121                                          44.500          43.000                                  
R02  21040396.641    21040395.438    21040404.867    21040405.086   112275592.250   112275579.252    87325449.601    87325455.604          47.200          45.500          45.100          46.000  
R18  21665655.586    21665654.863    21665663.043    21665662.543   115652737.611   115652730.617    89952125.716    89952130.719          44.500          43.200          44.900          45.800  
R15  21374665.289    21374664.699    21374673.891    21374673.309   114219565.396   114219708.404    88837544.882    88837549.885          47.400          45.300          45.600          45.300  
R16  21467876.406    21467874.426    21467883.469    21467883.695   114677699.608   114677522.628    89193626.231    89193632.242          45.600          42.700          44.900          46.700  
R17  19672846.766    19672846.066    19672852.973    19672853.160   105273372.957   105273364.973    81879285.972    81879289.976          50.800          49.200          48.900          50.600  
R24  21573179.977    21573179.746    21573187.930    21573187.773   115361499.941   115361468.951    89725587.403    89725593.414          46.600          44.500          46.000          45.700  
E13  26159671.672    26159683.387    26159680.809    26159683.480   137470010.671   102656162.553   105334148.935   103995144.853          39.800          44.100          44.700          50.500  
E15  23399165.555    23399173.867    23399171.664    23399174.004   122963443.702    91823377.869    94218761.614    93021094.346          48.300          47.400          48.900          55.400  
E21  26619837.359    26619846.652    26619843.605    26619846.688   139888188.766   104461995.095   107187079.753   105824546.032          39.600          40.200          41.100          46.000  
E27  24193824.086    24193831.938    24193830.203    24193832.184   127139399.396    94941743.477    97418485.034    96180107.866          47.700          47.400          48.700          55.300  
E30  25925134.805    25925145.375    25925142.891    25925145.637   136237493.426   101735822.322   104389788.889   103062820.714          43.000          44.200          45.300          51.400  
E05  25477475.680    25477488.398    25477487.086    25477488.660   133885048.143    99979092.576   102587243.120   101283146.452          40.400          38.600          41.300          45.900  
C20  24362635.172                   126862645.216                          42.500                  
C13  38894147.148    38894156.215   202532032.067   156610598.782          41.200          40.000  
C04  38424063.820    38424064.805   200084191.055   154717784.646          36.200          40.800  
C03  37401044.758    37401044.750   194757052.248   150598505.371          39.300          42.200  
C02  38881766.148    38881768.332   202467653.145   156560766.453          32.900          40.900  
C01  37956389.328    37956390.578   197648876.151   152834650.948          38.400          41.400  
C30  21907326.563                   114077196.244                          48.100                  
C29  22384069.250                   116559717.984                          48.100                  
C27  25355520.813                   132032842.305                          39.500                  
> 2025 04 10 06 34  5.0000000  0 32
G11  23442929.602                    23442938.879   123193431.832                    95994915.487          41.900                          44.500  
G17  20623219.914                    20623226.508   108375746.948                    84448657.099          47.400                          47.100  
G22  21912161.656    21912168.000                   115149181.047    89726659.597                          45.100          32.300                  
G03  22211009.156                    22211019.426   116719634.916                    90950404.590          42.300                          43.900  
G06  21073727.156                    21073736.941   110743184.002                    86293431.251          47.000                          47.900  
G19  19835747.602    19835750.727                   104237552.556    81224081.124                          48.200          41.600                  
G04  23514448.734                    23514460.402   123569266.760                    96287795.605          37.500                          39.300  
G14  22790580.938                    22790592.883   119765306.322                    93323636.135          40.000                          43.500  
G12  24200658.102                    24200667.273   127175323.305                    99097685.350          36.200                          35.200  
G09  23822635.039                    23822651.016   125188832.705                    97549780.786          39.500                          41.000  
R01  20955513.203    20955511.688                                   112019394.937   112019209.956                                          43.700          42.600                                  
R02  21036991.688    21036990.250    21036999.715    21036999.387   112257421.686   112257408.674    87311316.962    87311322.966          47.600          45.600          44.800          46.000  
R18  21662761.281    21662759.855    21662768.926    21662768.121   115637289.832   115637282.837    89940110.777    89940115.773          44.100          43.200          45.800          46.800  
R15  21376883.641    21376883.406    21376893.098    21376892.953   114231423.873   114231566.873    88846768.113    88846773.123          46.700          44.900          46.000          45.400  
R16  21466664.523    21466663.363    21466671.691    21466671.969   114671229.829   114671052.828    89188594.164    89188600.161          46.800          45.000          46.800          47.700  
R17  19671923.164    19671922.465    19671929.559    19671929.090   105268428.441   105268420.440    81875440.242    81875444.239          51.200          49.200          49.900          50.300  
R24  21574725.883    21574724.242    21574732.789    21574732.191   115369761.840   115369730.850    89732013.316    89732019.319          47.200          45.600          45.700          46.000  
E13  26157158.648    26157169.605    26157167.262    26157170.023   137456803.054   102646299.754   105324028.837   103985153.403          40.900          44.300          45.900          51.000  
E15  23398390.484    23398398.293    23398396.277    23398398.445   122959369.523    91820335.454    94215639.832    93018012.252          48.300          48.600          50.000          55.300  
E21  26617272.266    26617280.180    26617278.586    26617280.852   139874706.818   104451927.391   107176749.405   105814347.002          43.800          41.500          43.400          47.700  
E27  24193762.984    24193770.668    24193769.168    24193771.176   127139079.278    94941504.432    97418239.751    96179865.702          47.800          47.500          49.100          54.800  
E30  25927202.867    25927212.988    25927210.926    25927213.625   136248360.412   101743937.243   104398115.500   103071041.481          43.300          44.600          46.900          51.500  
E05  25475686.906    25475699.531    25475698.219    25475699.914   133875647.573    99972072.694   102580040.115   101276035.009          39.300          39.300          41.400          45.900  
C20  24358955.914                   126843487.239                          42.900                  
C13  38892293.680    38892302.414   202522381.603   156603136.448          41.000          40.600  
C04  38423359.539    38423360.301   200080523.374   154714948.563          35.900          41.100  
C03  37400363.445    37400364.082   194753507.866   150595764.622          39.000          41.600  
C02  38881071.078    38881072.984   202464033.940   156557967.617          33.900          40.400  
C01  37955715.258    37955717.102   197645369.370   152831939.284          38.200          41.600  
C30  21907583.383                   114078531.941                          48.500                  
C29  22381865.563                   116548245.146                          47.300                  
C27  25357278.516                   132041995.367                          39.700                  
> 2025 04 10 06 34 10.0000000  0 32
G11  23439794.094                    23439802.309   123176948.151                    95982071.070          42.500                          44.100  
G17  20623446.773                    20623453.156   108376939.718                    84449586.521          47.400                          47.000  
G22  21913880.719    21913887.258                   115158214.154    89733698.373                          45.100          33.100                  
G03  22213176.422                    22213186.297   116731023.734                    90959278.990          41.800                          44.100  
G06  21071808.289                    21071817.492   110733097.870                    86285571.943          47.800                          48.700  
G19  19834211.797    19834215.539                   104229484.852    81217794.607                          47.600          41.800                  
G04  23511904.977                    23511916.891   123555902.140                    96277381.617          35.500                          40.800  
G14  22793319.703                    22793331.359   119779697.367                    93334849.871          41.400                          43.200  
G12  24197203.609                    24197210.746   127157161.831                    99083533.628          37.700                          35.900  
G09  23819125.320                    23819141.156   125170388.824                    97535409.045          38.400                          38.400  
R01  20955664.594    20955664.602                                   112020206.523   112020021.527                                          43.600          43.100                                  
R02  21033591.047    21033588.789    21033598.633    21033598.590   112239272.812   112239259.807    87297201.155    87297207.152          48.200          46.600          46.000          46.800  
R18  21659869.594    21659868.285    21659876.883    21659876.414   115621851.544   115621844.560    89928103.244    89928108.240          44.100          42.700          45.700          46.300  
R15  21379107.680    21379107.324    21379115.738    21379115.797   114243302.602   114243445.602    88856007.140    88856012.143          46.200          45.600          45.700          46.000  
R16  21465458.469    21465457.777    21465465.840    21465465.688   114664788.543   114664611.541    89183584.278    89183590.267          47.200          46.100          46.500          47.600  
R17  19671001.602    19671000.434    19671007.363    19671007.152   105263497.448   105263489.468    81871605.026    81871609.037          51.200          49.100          49.400          49.600  
R24  21576272.742    21576271.691    21576280.039    21576279.785   115378034.273   115378003.283    89738447.410    89738453.405          47.600          44.300          46.000          46.200  
E13  26154647.063    26154658.250    26154656.000    26154658.418   137443604.958   102636444.041   105313916.031   103975169.144          41.000          44.200          45.300          50.700  
E15  23397617.125    23397625.320    23397623.117    23397625.387   122955306.443    91817301.341    94212526.562    93014938.560          48.200          48.500          50.100          55.300  
E21  26614709.070    26614717.656    26614716.250    26614718.168   139861239.302   104441870.488   107166430.144   105804158.924          42.400          41.000          43.300          47.700  
E27  24193705.500    24193712.965    24193711.512    24193713.523   127138777.098    94941278.765    97418008.206    96179637.091          48.300          48.100          49.600          55.000  
E30  25929272.383    25929283.008    25929280.805    25929283.531   136259238.553   101752060.509   104406450.682   103079270.702          42.800          44.700          46.700          51.400  
E05  25473901.352    25473913.863    25473912.316    25473914.227   133866262.896    99965064.667   102572849.285   101268935.584          38.200          41.300          42.800          47.700  
C20  24355278.586                   126824340.411                          42.100                  
C13  38890442.133    38890450.672   202512739.885   156595680.879          40.800          40.900  
C04  38422655.953    38422657.746   200076861.787   154712117.209          36.400          40.600  
C03  37399684.133    37399684.684   194749969.512   150593028.552          39.300          42.500  
C02  38880377.563    38880379.008   202460421.664   156555174.390          34.200          41.600  
C01  37955042.859    37955044.855   197641868.661   152829232.329          38.300          42.400  
C30  21907841.844                   114079879.830                          48.600                  
C29  22379664.211                   116536782.566                          47.200                  
C27  25359038.273                   132051156.687                          38.300                  
> 2025 04 10 06 34 15.0000000  0 32
G11  23436658.734                    23436667.695   123160475.913                    95969235.584          41.400                          45.200  
G17  20623677.266                    20623683.430   108378149.386                    84450529.110          47.200                          46.900  
G22  21915602.820    21915609.621                   115167264.493    89740750.567                          45.500          33.500                  
G03  22215347.602                    22215356.660   116742429.513                    90968166.604          41.900                          43.800  
G06  21069891.680                    21069901.281   110723026.579                    86277724.184          48.100                          48.400  
G19  19832680.445    19832683.438                   104221435.597    81211522.457                          47.700          41.800                  
G04  23509364.273                    23509376.574   123542554.406                    96266980.851          35.100                          40.200  
G14  22796060.625                    22796072.406   119794100.388                    93346072.951          41.300                          42.800  
G12  24193748.453                    24193758.992   127139017.752                    99069395.334          37.100                          35.800  
G09  23815616.719                    23815633.609   125151955.129                    97521045.264          37.300                          37.900  
R01  20955822.500    20955821.805                                   112021047.719   112020862.723                                          44.300          43.400                                  
R02  21030193.945    21030192.625    21030201.770    21030201.184   112221146.825   112221133.835    87283103.185    87283109.182          48.300          46.600          45.100          46.000  
R18  21656979.266    21656977.371    21656986.578    21656986.094   115606423.920   115606416.917    89916103.984    89916108.979          44.100          42.400          45.000          46.000  
R15  21381334.695    21381334.340    21381343.125    21381342.637   114255202.517   114255345.518    88865262.607    88865267.611          46.800          46.100          46.000          46.800  
R16  21464258.313    21464257.504    21464265.402    21464265.523   114658376.969   114658199.957    89178597.512    89178603.522          46.300          45.200          47.100          47.100  
R17  19670082.992    19670081.824    19670089.113    19670088.625   105258581.093   105258573.101    81867781.187    81867785.195          51.400          49.500          49.400          49.600  
R24  21577821.906    21577820.621    21577829.156    21577829.410   115386318.336   115386287.361    89744890.555    89744896.558          47.300          45.600          45.900          46.600  
E13  26152138.141    26152148.945    26152147.066    26152149.070   137430417.384   102626596.183   105303811.281   103965192.843          42.500          42.900          44.600          50.800  
E15  23396845.969    23396854.027    23396852.383    23396854.383   122951255.559    91814276.325    94209422.634    93011874.089          48.100          47.100          48.500          55.400  
E21  26612149.758    26612157.344    26612156.641    26612158.273   139847787.225   104431825.085   107156122.707   105793982.500          42.800          39.400          43.500          47.400  
E27  24193651.750    24193659.176    24193657.254    24193659.613   127138493.882    94941067.266    97417791.187    96179422.833          48.400          46.700          47.600          54.600  
E30  25931344.586    25931355.645    25931353.395    25931356.098   136270128.798   101760192.801   104414795.118   103087509.068          42.900          43.900          45.100          51.500  
E05  25472119.680    25472130.355    25472129.746    25472131.543   133856895.140    99958069.320   102565671.455   101261848.996          38.500          39.900          42.400          47.300  
C20  24351603.891                   126805205.857                          41.400                  
C13  38888592.313    38888601.223   202503107.891   156588232.827          41.400          40.900  
C04  38421954.336    38421955.820   200073207.379   154709291.386          36.300          40.400  
C03  37399006.555    37399006.531   194746438.234   150590297.949          39.000          41.200  
C02  38879685.734    38879687.035   202456816.251   156552386.469          34.000          40.400  
C01  37954371.727    37954373.703   197638374.993   152826530.791          38.400          41.900  
C30  21908103.320                   114081240.964                          48.000                  
C29  22377465.188                   116525331.258                          47.200                  
C27  25360799.078                   132060327.141                          36.900                  
> 2025 04 10 06 34 20.0000000  0 32
G11  23433525.195                    23433535.055   123144013.371                    95956407.642          40.700                          43.800  
G17  20623909.750                    20623916.094   108379374.201                    84451483.501          47.300                          47.500  
G22  21917328.227    21917334.816                   115176330.309    89747814.818                          45.900          33.800                  
G03  22217520.477                    22217530.145   116753850.480                    90977066.063          42.300                          43.300  
G06  21067977.383                    21067986.844   110712968.329                    86269886.589          47.600                          48.000  
G19  19831151.859    19831155.000                   104213403.059    81205263.329                          48.100          41.100                  
G04  23506828.000                    23506839.762   123529221.902                    96256591.900          35.100                          40.500  
G14  22798803.461                    22798815.637   119808513.556                    93357303.943          39.900                          43.700  
G12  24190301.570                    24190308.781   127120889.160                    99055269.196          38.100                          33.200  
G09  23812110.625                    23812126.559   125133529.952                    97506688.113          37.100                          40.900  
R01  20955985.133    20955984.555                                   112021916.898   112021731.888                                          44.300          43.200                                  
R02  21026800.992    21026799.320    21026809.086    21026809.156   112203041.611   112203028.607    87269021.360    87269027.364          47.700          46.500          46.000          47.100  
R18  21654089.703    21654089.215    21654097.695    21654097.328   115591005.100   115590998.084    89904111.605    89904116.608          44.600          42.800          45.300          45.900  
R15  21383564.578    21383564.461    21383573.676    21383573.344   114267121.931   114267264.918    88874533.269    88874538.271          46.500          45.400          46.200          46.300  
R16  21463062.742    21463062.285    21463070.281    21463070.305   114651992.916   114651815.929    89173632.121    89173638.131          46.000          44.700          45.700          46.900  
R17  19669166.797    19669165.863    19669172.891    19669172.453   105253677.525   105253669.541    81863967.309    81863971.312          50.500          48.900          49.400          49.600  
R24  21579372.859    21579371.926    21579380.867    21579380.484   115394612.151   115394581.176    89751341.284    89751347.295          45.800          44.600          45.800          47.000  
E13  26149629.773    26149641.586    26149639.102    26149641.152   137417238.552   102616754.890   105293713.245   103955223.175          42.200          44.200          45.300          50.800  
E15  23396077.094    23396085.180    23396083.492    23396085.445   122947215.076    91811259.088    94206326.686    93008817.494          47.600          47.900          49.300          55.300  
E21  26609592.227    26609599.898    26609599.148    26609600.871   139834348.870   104421789.976   107145825.782   105783816.483          43.500          39.700          43.400          47.500  
E27  24193600.914    24193608.652    24193607.105    24193609.164   127138227.929    94940868.655    97417587.398    96179221.636          47.900          47.600          49.000          54.900  
E30  25933418.602    25933430.195    25933427.758    25933430.512   136281029.443   101768332.873   104423147.542   103095755.316          43.300          44.800          46.500          51.900  
E05  25470338.570    25470350.656    25470349.531    25470351.730   133847542.626    99951085.261   102558505.196   101254773.836          40.200          39.800          41.900          46.700  
C20  24347931.539                   126786081.792                          40.700                  
C13  38886744.086    38886753.223   202493484.023   156580791.057          42.500          41.100  
C04  38421254.289    38421254.473   200069558.345   154706469.695          36.300          41.100  
C03  37398328.898    37398329.531   194742912.278   150587571.455          39.200          42.200  
C02  38878994.164    38878995.461   202453216.136   156549602.646          34.800          41.300  
C01  37953702.273    37953704.039   197634886.682   152823833.417          38.400          42.100  
C30  21908367.156                   114082613.596                          48.700                  
C29  22375267.820                   116513889.515                          46.900                  
C27  25362561.336                   132069505.073                          34.100                  
> 2025 04 10 06 34 25.0000000  0 32
G11  23430394.938                    23430404.563   123127561.081                    95943587.667          42.500                          44.500  
G17  20624145.875                    20624152.520   108380614.849                    84452450.243          47.200                          47.300  
G22  21919056.742    21919063.246                   115185412.201    89754891.615                          46.300          33.800                  
G03  22219696.914                    22219706.621   116765287.219                    90985977.798          42.500                          43.900  
G06  21066066.055                    21066075.480   110702923.764                    86262059.654          47.000                          48.100  
G19  19829626.867    19829630.125                   104205387.845    81199017.708                          47.900          42.200                  
G04  23504294.273                    23504305.117   123515905.156                    96246215.281          35.400                          41.100  
G14  22801548.422                    22801560.547   119822937.538                    93368543.356          40.700                          43.100  
G12  24186851.469                    24186861.750   127102776.894                    99041155.756          36.200                          36.500  
G09  23808605.430                    23808622.477   125115113.884                    97492337.966          36.600                          41.700  
R01  20956152.906    20956151.391                                   112022814.666   112022629.691                                          44.700          43.000                                  
R02  21023412.039    21023410.250    21023419.531    21023420.371   112184958.057   112184945.052    87254956.396    87254962.400          47.900          46.300          46.700          46.900  
R18  21651203.758    21651202.566    21651211.512    21651211.516   115575595.883   115575588.867    89892126.641    89892131.644          43.000          41.700          45.800          47.800  
R15  21385799.281    21385798.457    21385808.109    21385807.809   114279061.381   114279204.367    88883819.479    88883824.482          46.000          45.100          45.900          46.500  
R16  21461873.531    21461872.488    21461880.379    21461880.641   114645637.422   114645460.420    89168688.939    89168694.936          45.800          44.400          46.400          47.300  
R17  19668253.094    19668251.926    19668258.961    19668258.738   105248787.422   105248779.428    81860163.899    81860167.896          51.100          49.600          49.100          49.800  
R24  21580924.773    21580924.309    21580933.434    21580932.891   115402916.259   115402885.288    89757800.010    89757806.014          45.500          44.500          46.100          47.000  
E13  26147123.938    26147135.141    26147132.750    26147134.914   137404069.088   102606920.567   105283622.352   103945260.567          42.600          44.500          45.300          50.800  
E15  23395310.398    23395318.629    23395316.613    23395318.781   122943185.629    91808250.086    94203239.188    93005769.246          48.000          48.000          49.400          55.400  
E21  26607038.133    26607045.520    26607045.145    26607046.629   139820924.792   104411765.478   107135539.817   105773661.255          43.600          40.400          44.300          48.300  
