     3.04           OBSERVATION DATA    M (MIXED)           RINEX VERSION / TYPE
BLANK OR G = GPS, R = GLONASS, C = BDS, E = GAL, J = QZSS, M = MIXEDCOMMENT             
HGO                 HITARGET            20250511 084953 UTC PGM / RUN BY / DATE 
5555                                                        MARKER NAME         
                                                            MARKER NUMBER       
whoever             HITARGET                                OBSERVER / AGENCY   
10020466            iRTK2                                   REC # / TYPE / VERS 
1                   HITIRTK2-2                              ANT # / TYPE        
 -2623848.6375  3977001.4306  4226059.5067                  APPROX POSITION XYZ 
------------------------------------------------------------COMMENT             
*** Antenna height is from mark to ANTENNA Phase Center.    COMMENT             
------------------------------------------------------------COMMENT             
        1.3992        0.0000        0.0000                  ANTENNA: DELTA H/E/N
G    9 C1C C2W C2X L1C L2W L2X S1C S2W S2X                  SYS / # / OBS TYPES 
R   12 C1C C1P C2P C2C L1C L1P L2P L2C S1C S1P S2P S2C      SYS / # / OBS TYPES 
E   12 C1X C5X C7X C8X L1X L5X L7X L8X S1X S5X S7X S8X      SYS / # / OBS TYPES 
C    6 C2I C7I L2I L7I S2I S7I                              SYS / # / OBS TYPES 
     5.000                                                  INTERVAL            
  2025     4    10     7     5   35.0000000     GPS         TIME OF FIRST OBS   
  2025     4    10     8    13   35.0000000     GPS         TIME OF LAST OBS    
     0                                                      RCV CLOCK OFFS APPL 
    18                                                      LEAP SECONDS        
                                                            END OF HEADER       
> 2025 04 10 07 05 35.0000000  0 31
G17  21155252.844                    21155260.508   111171600.603                    86627249.637          47.500                          45.700  
G11  22629336.445                    22629345.023   118917963.392                    92663380.347          41.500                          44.600  
G09  22874321.594                    22874333.688   120205372.044                    93666548.567          41.800                          43.600  
G19  19732382.727    19732386.590                   103694370.362    80800825.105                          48.200          43.100                  
G22  22991895.719    22991905.207                   120823229.522    94148006.239                          40.500          26.900                  
G03  23452728.617                    23452740.043   123244912.116                    96035048.019          40.100                          42.800  
G04  23017469.898                    23017480.434   120957619.160                    94252735.102          40.800                          42.600  
G06  20762754.727                    20762764.160   109109009.311                    85020048.687          47.800                          48.400  
G12  23364803.273                    23364812.191   122782880.041                    95674990.385          39.400                          40.600  
R24  22527426.211    22527425.277    22527437.242    22527437.219   120464267.426   120464258.464    93694420.563    93694426.552          42.500          41.300          42.800          43.700  
R18  20928962.078    20928961.121    20928969.293    20928969.309   111720241.905   111720206.885    86893494.558    86893498.563          46.600          45.300          47.300          47.000  
R03  22516240.891    22516240.102    22516255.363    22516255.098   120531208.564   120531194.570    93746495.186    93746501.196          42.500          41.400          43.200          44.100  
R02  20298571.313    20298569.641    20298579.172    20298578.840   108317062.813   108317052.809    84246597.169    84246603.181          47.300          46.200          47.800          48.100  
R16  21619115.266    21619114.105    21619124.051    21619123.848   115485431.943   115485416.951    89821990.936    89821997.946          45.000          44.100          46.300          46.600  
R17  19735631.664    19735631.199    19735639.348    19735639.156   105609348.662   105609335.659    82140596.768    82140601.778          49.300          47.500          49.400          50.300  
R01  21610913.852    21610912.805                                   115522725.171   115522712.182                                          41.000          40.200                                  
E03  26603444.164    26603456.891    26603455.016    26603456.977   139802043.604   104397613.684   107121029.533   105759313.718          41.500          42.100          45.500          49.100  
E13  25564261.023    25564270.930    25564268.441    25564271.051   134341103.813   100319630.206   102936662.724   101628142.074          42.600          45.500          45.800          51.300  
E15  23481651.547    23481659.266    23481657.578    23481659.863   123396910.949    92147064.105    94550840.019    93349010.669          47.600          49.200          50.700          56.100  
E21  26084537.445    26084546.066    26084543.957    26084546.355   137075168.171   102361348.305   105031640.855   103696517.691          42.100          43.300          44.300          49.400  
E27  24640188.930    24640196.691    24640195.004    24640197.426   129485062.696    96693374.136    99215809.480    97954584.917          47.000          47.600          48.800          54.000  
E05  25254409.352    25254418.332    25254417.582    25254420.020   132712821.170    99103709.693   101689023.525   100396361.716          41.900          39.900          43.000          47.100  
E30  27075509.797    27075524.000    27075520.906    27075524.156   142282758.533   106250091.494   109021833.239   107635958.480          44.200          44.400          45.000          49.800  
C04  38470020.922    38470019.941   200323491.724   154902828.713          37.100          40.100  
C03  37455252.914    37455253.074   195039333.321   150816779.149          38.100          41.600  
C02  38928977.523    38928977.559   202713481.477   156750858.716          36.300          40.000  
C01  38013363.820    38013365.434   197945555.131   153064067.166          38.300          42.200  
C30  22402762.953                   116657060.471                          48.300                  
C29  21924925.430                   114168837.925                          48.400                  
C20  23370461.086                   121696121.057                          46.800                  
C13  38542365.070    38542373.242   200700207.345   155194117.526          39.700          40.200  
> 2025 04 10 07 05 40.0000000  0 31
G17  21156318.281                    21156325.762   111177198.494                    86631611.622          46.100                          45.700  
G11  22626648.391                    22626656.609   118903835.652                    92652371.715          42.500                          45.600  
G09  22871354.922                    22871365.379   120189776.342                    93654396.125          42.400                          43.900  
G19  19731874.930    19731878.969                   103691702.431    80798746.193                          48.200          43.000                  
G22  22994312.602    22994321.547                   120835926.183    94157899.712                          41.400          29.600                  
G03  23455546.117                    23455558.313   123259720.755                    96046587.169          42.600                          44.900  
G04  23015908.125                    23015918.285   120949411.021                    94246339.148          39.200                          42.600  
G06  20761498.883                    20761508.598   109102412.595                    85014908.403          48.100                          48.600  
G12  23362364.289                    23362371.969   122770062.521                    95665002.650          40.600                          40.600  
R24  22529392.625    22529391.223    22529402.234    22529402.863   120474778.986   120474769.992    93702596.150    93702602.135          41.600          39.900          41.800          42.800  
R18  20926455.195    20926453.887    20926462.320    20926461.805   111706858.195   111706823.189    86883085.008    86883089.012          45.000          43.600          47.000          47.600  
R03  22511664.094    22511662.484    22511677.965    22511678.430   120506703.874   120506689.881    93727436.052    93727442.056          43.200          40.900          43.200          45.000  
R02  20296610.797    20296610.414    20296619.285    20296619.242   108306601.868   108306591.857    84238460.887    84238466.897          47.400          46.500          48.100          48.700  
R16  21619588.758    21619587.832    21619597.672    21619597.152   115487958.813   115487943.818    89823956.251    89823963.239          45.000          44.200          45.200          46.400  
R17  19735373.469    19735372.063    19735380.277    19735380.051   105607965.097   105607952.095    82139520.647    82139525.658          49.200          47.800          49.300          50.300  
R01  21612658.961    21612658.734                                   115532056.748   115532043.746                                          41.100          40.000                                  
E03  26600643.391    26600656.648    26600653.930    26600656.328   139787326.406   104386623.624   107109752.766   105748180.300          41.800          43.100          44.800          49.900  
E13  25562105.578    25562115.336    25562113.086    25562115.660   134329777.367   100311172.153   102927984.019   101619573.696          41.300          44.800          46.200          51.500  
E15  23481328.055    23481335.617    23481333.648    23481336.098   123395209.917    92145793.853    94549536.626    93347723.848          48.200          48.500          50.000          55.600  
E21  26082785.578    26082793.813    26082791.844    26082794.102   137065959.575   102354471.747   105024584.898   103689551.429          42.100          44.100          45.100          50.100  
E27  24641068.180    24641075.645    24641074.379    24641076.598   129489683.277    96696824.550    99219349.909    97958080.334          48.000          47.000          49.000          54.200  
E05  25253519.469    25253530.043    25253528.355    25253531.098   132708147.559    99100219.618   101685442.446   100392826.140          39.100          39.600          42.300          46.700  
E30  27077952.000    27077966.082    27077963.082    27077966.133   142295591.085   106259674.171   109031665.909   107645666.146          44.300          43.800          45.200          50.500  
C04  38469443.445    38469443.004   200320487.918   154900505.976          36.100          39.800  
C03  37454696.141    37454695.992   195036433.062   150814536.470          38.700          41.100  
C02  38928398.516    38928398.063   202710463.198   156748524.772          36.200          40.800  
C01  38012813.953    38012815.430   197942692.887   153061853.878          37.100          42.100  
C30  22403600.859                   116661426.617                          48.100                  
C29  21923199.367                   114159851.733                          48.800                  
C20  23367431.359                   121680346.289                          45.400                  
C13  38540841.234    38540848.977   200692271.402   155187980.979          39.900          40.400  
> 2025 04 10 07 05 45.0000000  0 31
G17  21157385.703                    21157393.000   111182807.011                    86635981.891          46.600                          44.700  
G11  22623961.250                    22623968.906   118889713.239                    92641367.239          42.900                          44.200  
G09  22868388.563                    22868399.699   120174189.834                    93642250.828          42.100                          43.000  
G19  19731370.148    19731374.117                   103689048.822    80796678.432                          48.200          42.900                  
G22  22996729.719    22996739.293                   120848629.201    94167798.120                          40.900          28.300                  
G03  23458365.734                    23458377.063   123274534.927                    96058130.700          39.900                          40.600  
G04  23014348.820                    23014359.355   120941217.391                    94239954.527          39.700                          44.400  
G06  20760245.289                    20760255.398   109095823.858                    85009774.319          47.700                          48.700  
G12  23359927.953                    23359936.477   122757260.035                    95655026.734          40.400                          40.000  
R24  22531358.359    22531357.191    22531368.613    22531369.109   120485295.283   120485286.281    93710775.485    93710781.477          41.700          39.700          43.700          44.600  
R18  20923947.805    20923947.551    20923955.785    20923955.500   111693479.313   111693444.301    86872679.214    86872683.218          44.600          43.400          46.900          47.000  
R03  22507086.438    22507085.766    22507100.660    22507101.414   120482204.749   120482190.753    93708381.260    93708387.266          42.500          40.800          42.600          43.800  
R02  20294654.766    20294653.445    20294662.633    20294662.535   108296162.872   108296152.876    84230341.680    84230347.691          47.100          46.200          48.100          48.100  
R16  21620064.031    21620064.043    21620074.141    21620073.629   115490507.310   115490492.322    89825938.425    89825945.427          43.200          42.700          44.500          45.500  
R17  19735116.461    19735115.176    19735123.371    19735123.004   105606590.146   105606577.167    82138451.252    82138456.255          49.700          47.300          49.000          49.600  
R01  21614409.188    21614408.492                                   115541407.573   115541394.587                                          39.700          38.400                                  
E03  26597844.398    26597857.109    26597854.250    26597856.793   139772614.863   104375637.774   107098480.311   105737051.152          39.700          41.100          43.200          47.700  
E13  25559951.000    25559960.539    25559958.758    25559960.930   134318454.530   100302716.807   102919308.087   101611008.052          42.800          45.000          46.000          51.500  
E15  23481005.250    23481012.648    23481010.914    23481013.258   123393513.597    92144527.115    94548236.839    93346440.583          48.500          48.300          49.500          55.600  
E21  26081034.750    26081043.406    26081041.578    26081043.930   137056762.214   102347603.600   105017537.578   103682593.694          42.700          43.700          43.700          49.600  
E27  24641949.289    24641956.867    24641955.883    24641957.996   129494315.016    96700283.316    99222898.899    97961584.213          46.600          47.000          48.900          54.000  
E05  25252632.563    25252642.672    25252641.781    25252643.926   132703485.940    99096738.574   101681870.581   100389299.685          42.000          38.700          41.100          45.500  
E30  27080394.594    27080408.520    27080405.379    27080408.430   142308426.154   106269258.740   109041500.502   107655375.727          44.400          42.900          43.900          49.500  
C04  38468866.555    38468866.449   200317484.717   154898183.719          36.700          40.800  
C03  37454138.992    37454138.996   195033533.477   150812294.318          39.000          41.300  
C02  38927818.219    38927818.379   202707445.422   156746191.248          36.000          41.800  
C01  38012264.398    38012265.836   197939831.268   153059641.095          38.100          42.100  
C30  22404441.406                   116665799.779                          48.700                  
C29  21921475.008                   114150871.727                          48.800                  
C20  23364403.797                   121664581.359                          46.300                  
C13  38539318.391    38539325.363   200684339.013   155181847.151          40.500          40.100  
> 2025 04 10 07 05 50.0000000  0 31
G17  21158454.133                    21158462.324   111188425.154                    86640359.663          46.600                          45.500  
G11  22621274.227                    22621282.609   118875595.241                    92630366.238          42.200                          43.800  
G09  22865423.477                    22865435.910   120158611.611                    93630112.021          40.200                          44.300  
G19  19730867.914    19730871.430                   103686408.515    80794621.042                          47.900          42.100                  
G22  22999148.469    22999157.656                   120861337.604    94177700.764                          41.600          27.800                  
G03  23461185.695                    23461197.176   123289353.649                    96069677.748          39.400                          40.200  
G04  23012791.992                    23012802.609   120933037.220                    94233580.370          40.200                          43.500  
G06  20758992.602                    20759002.738   109089242.125                    85004645.697          47.800                          48.400  
G12  23357494.336                    23357503.051   122744471.689                    95645061.795          41.600                          42.500  
R24  22533325.313    22533325.434    22533336.039    22533336.715   120495815.255   120495806.274    93718957.665    93718963.662          40.300          39.500          42.200          42.300  
R18  20921443.164    20921442.793    20921450.492    20921450.059   111680104.225   111680069.204    86862276.355    86862280.359          44.500          43.000          48.000          48.800  
R03  22502510.664    22502509.758    22502524.793    22502525.117   120457709.967   120457695.974    93689329.860    93689335.863          43.000          41.600          43.000          44.400  
R02  20292702.211    20292700.891    20292710.262    20292710.332   108285744.865   108285734.868    84222238.791    84222244.795          46.600          45.600          48.100          48.600  
R16  21620545.602    21620546.082    21620555.605    21620555.828   115493076.286   115493061.297    89827936.487    89827943.491          43.500          42.800          44.700          45.300  
R17  19734861.031    19734859.863    19734867.863    19734867.699   105605222.920   105605209.918    82137387.844    82137392.849          49.600          47.600          49.400          50.000  
R01  21616161.484    21616161.609                                   115550776.414   115550763.427                                          38.700          38.400                                  
E03  26595045.313    26595058.539    26595056.051    26595058.219   139757908.028   104364655.456   107087211.508   105725925.587          39.300          42.100          43.400          48.200  
E13  25557797.031    25557805.926    25557804.613    25557806.582   134307134.477   100294263.549   102910634.307   101602444.534          42.600          44.400          46.100          50.900  
E15  23480683.008    23480690.621    23480688.605    23480691.156   123391821.033    92143263.188    94546939.938    93345160.172          48.800          48.500          49.800          55.500  
E21  26079287.047    26079295.219    26079293.531    26079295.508   137047575.236   102340743.170   105010498.196   103675643.789          44.700          45.100          46.700          51.500  
E27  24642832.891    24642840.320    24642839.523    24642841.387   129498956.943    96703749.679    99226455.690    97965095.792          46.700          47.400          49.800          54.400  
E05  25251747.484    25251757.609    25251757.469    25251758.824   132698835.585    99093265.884   101678307.306   100385781.703          43.100          40.100          43.600          47.400  
E30  27082837.633    27082851.180    27082848.316    27082851.270   142321262.698   106278844.419   109051336.265   107665086.447          43.500          43.700          44.400          49.600  
C04  38468290.172    38468289.836   200314481.319   154895861.314          37.200          41.000  
C03  37453581.938    37453582.344   195030633.470   150810051.870          39.400          40.900  
C02  38927239.016    38927239.105   202704427.204   156743857.336          36.800          41.800  
C01  38011714.914    38011716.070   197936969.271   153057428.018          37.400          42.200  
C30  22405281.727                   116670178.976                          48.200                  
C29  21919751.094                   114141896.969                          48.700                  
C20  23361378.180                   121648825.352                          46.900                  
C13  38537794.664    38537802.668   200676409.030   155175715.180          39.000          40.100  
> 2025 04 10 07 05 55.0000000  0 31
G17  21159525.828                    21159533.367   111194053.787                    86644745.602          46.300                          45.800  
G11  22618588.469                    22618596.848   118861482.594                    92619369.353          42.700                          43.800  
G09  22862460.398                    22862472.246   120143042.490                    93617980.230          40.800                          43.900  
G19  19730368.266    19730371.531                   103683782.462    80792574.771                          48.700          42.600                  
G22  23001568.063    23001577.070                   120874052.222    94187608.237                          40.600          28.500                  
G03  23464006.367                    23464018.535   123304177.835                    96081228.951          42.500                          43.600  
G04  23011238.211                    23011248.641   120924871.493                    94227217.464          42.200                          42.300  
G06  20757742.125                    20757751.918   109082668.356                    84999523.267          47.800                          48.100  
G12  23355063.695                    23355072.355   122731698.467                    95635108.670          40.600                          40.200  
R24  22535294.102    22535293.754    22535304.391    22535304.676   120506339.945   120506330.963    93727143.502    93727149.499          41.800          40.800          41.900          43.200  
R18  20918937.641    20918937.504    20918946.309    20918945.422   111666733.874   111666698.891    86851877.199    86851881.211          46.400          45.300          48.300          48.600  
R03  22497936.977    22497935.367    22497950.035    22497950.484   120433220.846   120433206.862    93670282.813    93670288.804          44.100          42.800          43.300          44.500  
R02  20290753.961    20290753.461    20290762.656    20290762.301   108275348.471   108275338.483    84214152.709    84214158.721          47.000          45.900          48.000          48.800  
R16  21621031.789    21621030.629    21621039.754    21621039.672   115495666.856   115495651.853    89829951.346    89829958.358          44.300          42.600          45.600          47.100  
R17  19734606.406    19734606.059    19734614.285    19734613.793   105603864.319   105603851.333    82136331.141    82136336.143          49.000          48.100          48.800          49.300  
R01  21617918.555    21617917.508                                   115560164.315   115560151.339                                          41.400          39.800                                  
E03  26592247.766    26592260.637    26592258.105    26592260.703   139743206.834   104353677.308   107075946.970   105714804.245          40.700          41.900          43.600          48.300  
E13  25555643.602    25555652.992    25555650.836    25555653.270   134295818.104   100285813.001   102901963.313   101593883.764          42.200          43.700          45.300          50.100  
E15  23480362.055    23480369.348    23480367.707    23480370.023   123390133.118    92142002.736    94545646.611    93343883.282          48.000          49.100          50.600          55.900  
E21  26077540.102    26077549.184    26077547.074    26077549.508   137038399.495   102333891.211   105003467.476   103668702.452          42.200          43.800          44.600          49.400  
E27  24643717.813    24643726.000    24643724.406    24643726.723   129503610.014    96707224.363    99230021.008    97968615.789          46.800          47.000          48.000          53.600  
E05  25250865.039    25250875.598    25250874.285    25250876.648   132694197.294    99089802.214   101674753.295   100382272.858          41.800          40.400          42.800          47.000  
E30  27085280.352    27085294.391    27085291.906    27085294.660   142334101.776   106288431.945   109061173.911   107674799.038          43.600          43.500          44.100          49.400  
C04  38467713.070    38467712.844   200311478.488   154893539.332          36.100          40.800  
C03  37453025.836    37453025.508   195027734.052   150807809.850          39.000          41.100  
C02  38926660.438    38926659.168   202701409.449   156741523.856          36.000          40.600  
C01  38011165.602    38011166.969   197934107.890   153055215.397          37.900          43.100  
C30  22406124.406                   116674565.196                          48.600                  
C29  21918029.289                   114132928.379                          48.800                  
C20  23358354.563                   121633079.127                          46.800                  
C13  38536272.586    38536280.387   200668482.609   155169585.979          40.900          40.400  
> 2025 04 10 07 06  0.0000000  0 31
G17  21160598.844                    21160606.195   111199692.441                    86649139.348          46.600                          44.800  
G11  22615904.164                    22615912.441   118847374.692                    92608376.168          42.000                          45.200  
G09  22859498.477                    22859511.621   120127481.971                    93605855.192          40.900                          43.600  
G19  19729870.711    19729874.488                   103681170.074    80790539.145                          48.400          42.800                  
G22  23003988.297    23003997.680                   120886772.557    94197520.128                          40.600          28.300                  
G03  23466828.297                    23466839.586   123319006.866                    96092784.038          43.800                          42.800  
G04  23009686.531                    23009697.320   120916719.640                    94220865.383          42.100                          42.400  
G06  20756492.688                    20756502.844   109076101.912                    84994406.543          47.600                          49.100  
G12  23352636.813                    23352644.305   122718939.730                    95625166.812          40.800                          39.800  
R24  22537263.320    22537262.387    22537272.648    22537272.910   120516868.791   120516859.811    93735332.614    93735338.611          41.900          41.300          42.400          42.200  
R18  20916434.273    20916433.434    20916442.203    20916441.539   111653367.702   111653332.704    86841481.307    86841485.311          46.300          45.100          48.900          48.600  
R03  22493363.406    22493361.211    22493376.027    22493376.230   120408736.592   120408722.591    93651239.579    93651245.583          43.700          42.000          42.800          43.200  
R02  20288810.148    20288808.711    20288818.215    20288817.980   108264973.552   108264963.541    84206083.325    84206089.337          47.000          46.400          48.600          48.900  
R16  21621520.102    21621519.879    21621529.344    21621529.324   115498278.167   115498263.170    89831982.364    89831989.361          45.200          43.100          44.900          45.200  
R17  19734354.703    19734353.297    19734361.289    19734361.063   105602513.781   105602500.793    82135280.718    82135285.721          48.900          47.900          49.200          50.200  
R01  21619677.883    21619677.070                                   115569570.704   115569557.700                                          42.200          40.000                                  
E03  26589451.000    26589463.656    26589461.496    26589463.871   139728510.750   104342703.009   107064686.387   105703686.803          41.100          40.900          43.600          48.300  
E13  25553490.422    25553499.992    25553497.930    25553500.313   134284504.789   100277364.737   102893294.661   101585325.310          41.200          44.600          45.600          51.100  
E15  23480041.750    23480048.949    23480047.074    23480049.512   123388449.257    92140745.299    94544356.368    93342609.444          48.900          48.800          50.900          56.000  
E21  26075796.820    26075805.164    26075802.867    26075805.441   137029234.508   102327047.229   104996444.957   103661769.201          43.400          44.400          44.600          50.100  
E27  24644605.695    24644613.305    24644611.992    24644614.078   129508273.592    96710706.889    99233594.392    97972143.751          47.100          47.200          48.600          54.000  
E05  25249984.570    25249995.395    25249993.801    25249996.188   132689570.497    99086347.167   101671208.107   100378772.746          41.100          41.500          43.700          47.900  
E30  27087724.188    27087738.199    27087735.059    27087738.160   142346942.656   106298020.865   109071012.974   107684513.028          44.300          43.700          43.900          49.800  
C04  38467135.930    38467136.367   200308475.690   154891217.391          36.100          40.600  
C03  37452469.188    37452468.766   195024834.656   150805567.851          39.600          41.100  
C02  38926080.102    38926079.766   202698391.528   156739190.227          36.100          41.100  
C01  38010615.797    38010617.328   197931246.431   153053002.760          38.600          43.000  
C30  22406968.039                   116678957.803                          48.100                  
C29  21916307.953                   114123965.374                          48.800                  
C20  23355332.516                   121617342.123                          46.800                  
C13  38534750.906    38534759.168   200660559.063   155163459.006          39.200          40.900  
> 2025 04 10 07 06  5.0000000  0 31
G17  21161673.602                    21161681.031   111205341.431                    86653541.142          46.500                          46.300  
G11  22613220.383                    22613228.883   118833271.974                    92597387.066          42.400                          45.400  
G09  22856539.922                    22856552.770   120111930.606                    93593737.291          41.000                          44.300  
G19  19729376.563    19729380.477                   103678571.818    80788514.518                          48.300          43.000                  
G22  23006410.359    23006419.438                   120899498.999    94207436.820                          40.900          28.200                  
G03  23469651.852                    23469663.191   123333841.231                    96104343.242          42.100                          42.200  
G04  23008138.031                    23008148.914   120908582.113                    94214524.435          40.100                          42.700  
G06  20755244.016                    20755254.035   109069543.284                    84989295.921          47.900                          48.200  
G12  23350211.336                    23350219.410   122706196.032                    95615236.688          39.100                          38.500  
R24  22539233.617    22539232.215    22539243.301    22539243.352   120527402.139   120527393.135    93743525.151    93743531.150          42.800          41.400          42.700          43.600  
R18  20913930.750    20913929.676    20913938.766    20913938.070   111640006.233   111639971.221    86831089.058    86831093.063          46.300          44.700          48.300          48.100  
R03  22488790.047    22488788.203    22488802.844    22488803.121   120384257.591   120384243.577    93632200.456    93632206.454          43.900          42.600          43.100          44.100  
R02  20286870.586    20286868.680    20286878.012    20286877.945   108254620.476   108254610.451    84198030.950    84198036.955          47.800          47.100          48.100          49.000  
R16  21622012.453    21622011.879    21622021.551    21622021.594   115500910.744   115500895.762    89834029.887    89834036.891          45.900          43.800          45.200          46.000  
R17  19734103.094    19734102.512    19734110.730    19734110.676   105601171.713   105601158.732    82134236.895    82134241.898          49.500          47.600          49.100          49.300  
R01  21621440.117    21621439.891                                   115578995.961   115578982.980                                          43.200          41.500                                  
E03  26586655.523    26586668.102    26586666.039    26586668.344   139713820.183   104331732.807   107053429.998   105692573.511          41.300          41.300          43.500          48.200  
E13  25551338.156    25551347.586    25551346.180    25551348.309   134273195.020   100268919.159   102884628.763   101576769.564          42.300          44.700          46.100          51.500  
E15  23479721.883    23479729.500    23479727.813    23479730.141   123386769.939    92139491.262    94543069.620    93341339.047          48.000          48.400          50.100          55.500  
E21  26074054.773    26074063.668    26074060.477    26074063.602   137020080.624   102320211.541   104989430.945   103654844.352          43.700          44.100          44.700          49.800  
E27  24645495.047    24645503.102    24645501.461    24645503.664   129512948.135    96714197.607    99237176.171    97975679.991          47.400          47.400          49.100          54.100  
E05  25249105.922    25249117.188    25249115.406    25249117.938   132684955.631    99082901.018   101667672.060   100375281.644          40.000          41.100          44.300          48.100  
E30  27090168.594    27090182.164    27090179.586    27090182.297   142359785.832   106307611.498   109080853.810   107694228.764          44.000          43.600          44.200          49.900  
C04  38466559.641    38466559.691   200305473.419   154888895.847          35.600          39.600  
C03  37451912.125    37451911.785   195021935.667   150803326.158          39.400          41.600  
C02  38925500.039    38925500.102   202695373.997   156736856.821          35.400          41.100  
C01  38010066.570    38010067.797   197928385.456   153050790.467          37.700          41.700  
C30  22407812.773                   116683357.267                          48.100                  
C29  21914588.094                   114115008.408                          49.500                  
C20  23352312.398                   121601614.855                          47.600                  
C13  38533230.063    38533237.457   200652638.819   155157334.573          40.800          40.500  
> 2025 04 10 07 06 10.0000000  0 31
G17  21162750.609                    21162757.988   111211001.184                    86657951.322          45.000                          45.200  
G11  22610537.438                    22610546.309   118819174.796                    92586402.251          42.400                          45.600  
G09  22853582.164                    22853595.063   120096388.573                    93581626.585          40.000                          44.900  
G19  19728884.844    19728889.031                   103675988.032    80786501.184                          48.300          42.700                  
G22  23008834.047    23008842.512                   120912231.868    94217358.511                          40.700          27.900                  
G03  23472476.008                    23472486.887   123348681.197                    96115906.875          41.300                          41.400  
G04  23006592.031                    23006603.047   120900459.217                    94208194.910          39.200                          42.300  
G06  20753998.078                    20754007.875   109062992.791                    84984191.654          48.100                          48.800  
G12  23347787.844                    23347797.199   122693467.627                    95605318.430          39.300                          37.900  
R24  22541203.930    22541203.113    22541214.582    22541214.289   120537940.357   120537931.353    93751721.528    93751727.520          42.900          41.700          42.200          43.100  
R18  20911428.164    20911428.145    20911436.566    20911436.320   111626649.703   111626614.720    86820700.652    86820704.649          45.800          44.100          47.600          47.500  
R03  22484218.023    22484216.414    22484231.090    22484231.410   120359784.354   120359770.339    93613165.835    93613171.838          44.800          43.700          43.200          44.100  
R02  20284933.469    20284932.617    20284941.414    20284941.297   108244289.180   108244279.176    84189995.497    84190001.509          47.600          46.900          48.100          47.800  
R16  21622510.219    21622508.355    21622518.270    21622518.160   115503564.898   115503549.903    89836094.228    89836101.224          44.800          43.300          46.800          47.300  
R17  19733854.227    19733853.293    19733861.438    19733861.492   105599838.563   105599825.577    82133200.001    82133205.004          49.400          47.600          49.000          49.700  
R01  21623208.531    21623206.664                                   115588440.342   115588427.339                                          41.500          39.700                                  
E03  26583861.477    26583873.891    26583872.012    26583874.305   139699135.513   104320766.968   107042178.114   105681464.644          42.300          41.900          45.200          48.900  
E13  25549187.016    25549196.063    25549194.797    25549196.793   134261889.044   100260476.374   102875965.743   101568216.664          42.900          44.900          45.800          51.000  
E15  23479403.172    23479410.957    23479408.895    23479411.395   123385095.488    92138240.857    94541786.587    93340072.332          48.300          49.100          50.100          55.500  
E21  26072315.148    26072323.199    26072320.340    26072323.656   137010938.243   102313384.441   104982425.744   103647928.201          43.400          43.800          44.000          49.500  
E27  24646387.328    24646394.836    24646393.242    24646395.473   129517633.965    96717696.757    99240766.605    97979224.784          47.400          47.700          49.400          54.500  
E05  25248230.531    25248241.309    25248239.574    25248242.027   132680353.079    99079464.053   101664145.424   100371799.846          40.200          40.000          43.100          47.200  
E30  27092612.750    27092627.043    27092623.715    27092626.719   142372631.631   106317204.070   109090696.621   107703946.451          42.500          41.900          43.500          48.400  
C04  38465983.500    38465983.168   200302471.998   154886574.954          36.000          40.100  
C03  37451355.578    37451355.121   195019037.411   150801085.024          39.900          41.500  
C02  38924921.063    38924920.750   202692357.046   156734523.951          36.200          40.200  
C01  38009517.313    38009518.383   197925525.228   153048578.753          38.100          43.100  
C30  22408659.086                   116687763.913                          47.600                  
C29  21912868.875                   114106057.835                          49.300                  
C20  23349293.688                   121585897.610                          47.300                  
C13  38531709.797    38531717.781   200644722.232   155151212.994          39.900          39.600  
> 2025 04 10 07 06 15.0000000  0 31
G17  21163829.508                    21163837.297   111216671.586                    86662369.806          46.100                          45.700  
G11  22607855.453                    22607864.152   118805083.082                    92575421.717          43.100                          44.900  
G09  22850626.828                    22850639.180   120080855.881                    93569523.242          40.800                          44.100  
G19  19728395.422    19728399.781                   103673418.676    80784499.093                          48.000          42.600                  
G22  23011257.922    23011266.844                   120924971.174    94227285.219                          40.600          25.600                  
G03  23475300.813                    23475311.867   123363526.728                    96127474.796          40.800                          41.600  
G04  23005049.422                    23005060.164   120892350.949                    94201876.827          39.900                          44.000  
G06  20752752.813                    20752762.535   109056450.367                    84979093.669          48.200                          48.600  
G12  23345370.391                    23345378.207   122680754.527                    95595412.088          40.200                          40.400  
R24  22543174.867    22543173.816    22543185.676    22543186.109   120548483.543   120548474.530    93759921.747    93759927.751          43.100          41.700          43.200          43.800  
R18  20908927.195    20908926.238    20908934.980    20908934.523   111613298.120   111613263.115    86810316.115    86810320.119          44.900          43.900          48.000          48.200  
R03  22479646.219    22479645.785    22479660.523    22479660.473   120335316.829   120335302.841    93594135.587    93594141.591          44.100          42.900          42.600          43.500  
R02  20283001.453    20283000.484    20283009.898    20283009.770   108233980.070   108233970.060    84181977.291    84181983.302          46.500          46.200          47.800          48.100  
R16  21623011.391    21623009.645    21623019.465    21623019.621   115506240.800   115506225.788    89838175.449    89838182.458          45.700          43.800          46.400          46.800  
R17  19733607.203    19733605.680    19733614.324    19733613.988   105598514.234   105598501.256    82132169.963    82132174.965          49.700          47.700          48.800          49.800  
R01  21624978.547    21624976.328                                   115597904.042   115597891.038                                          40.900          40.600                                  
E03  26581067.578    26581080.363    26581078.207    26581081.012   139684456.686   104309805.534   107030930.732   105670360.238          41.600          41.600          44.600          49.100  
E13  25547036.242    25547045.250    25547044.313    25547045.996   134250586.943   100252036.513   102867305.709   101559666.719          43.700          44.400          46.300          50.900  
E15  23479085.422    23479093.105    23479091.184    23479093.617   123383425.846    92136994.038    94540507.250    93338809.246          48.300          48.800          50.500          55.600  
E21  26070577.188    26070586.027    26070583.023    26070586.359   137001807.335   102306565.894   104975429.319   103641020.716          42.100          43.600          44.700          49.800  
E27  24647280.969    24647288.988    24647286.691    24647289.297   129522331.036    96721204.316    99244365.655    97982778.094          47.300          47.400          48.200          53.800  
E05  25247357.430    25247367.758    25247366.117    25247368.453   132675762.692    99076036.173   101660628.132   100368327.261          41.100          40.500          42.700          47.100  
E30  27095057.227    27095071.594    27095068.918    27095071.844   142385479.999   106326798.540   109100541.398   107713666.075          42.400          43.400          43.700          49.000  
C04  38465407.805    38465407.465   200299471.289   154884254.624          36.100          40.600  
C03  37450798.930    37450798.656   195016139.931   150798844.531          38.700          40.900  
C02  38924342.336    38924341.516   202689340.714   156732191.552          35.400          39.900  
C01  38008967.961    38008969.605   197922665.731   153046367.595          38.200          42.600  
C30  22409506.789                   116692177.695                          47.700                  
C29  21911151.086                   114097113.572                          48.300                  
C20  23346277.016                   121570190.333                          46.700                  
C13  38530190.086    38530198.414   200636809.268   155145094.165          40.500          40.200  
> 2025 04 10 07 06 20.0000000  0 31
G17  21164910.836                    21164918.055   111222352.120                    86666796.180          46.000                          45.900  
G11  22605175.469                    22605183.961   118790996.360                    92564445.064          43.000                          44.800  
G09  22847673.164                    22847684.637   120065332.095                    93557426.829          43.500                          44.200  
G19  19727909.625    19727913.672                   103670863.229    80782507.819                          48.600          42.800                  
G22  23013682.508    23013691.844                   120937716.312    94237216.482                          41.500          27.700                  
G03  23478126.039                    23478138.023   123378377.303                    96139046.640          40.400                          40.900  
G04  23003509.547                    23003520.434   120884256.707                    94195569.656          40.300                          43.200  
G06  20751509.367                    20751519.145   109049915.498                    84974001.577          47.200                          48.800  
G12  23342952.727                    23342961.398   122668056.213                    95585517.302          38.800                          39.200  
R24  22545147.781    22545146.496    22545158.582    22545158.191   120559031.021   120559022.045    93768125.290    93768131.287          43.100          41.600          44.200          44.600  
R18  20906427.766    20906426.223    20906435.012    20906434.676   111599950.874   111599915.876    86799934.900    86799938.896          46.100          44.900          47.200          47.600  
R03  22475077.039    22475075.664    22475090.254    22475090.832   120310854.540   120310840.562    93575109.442    93575115.448          44.100          43.200          43.400          45.200  
R02  20281073.367    20281072.281    20281081.938    20281082.004   108223692.485   108223682.481    84173975.871    84173981.883          47.500          46.400          47.300          47.900  
R16  21623516.078    21623514.801    21623524.277    21623524.219   115508937.712   115508922.701    89840273.031    89840280.042          46.600          44.900          46.400          47.200  
R17  19733361.297    19733359.422    19733367.805    19733367.832   105597198.116   105597185.130    82131146.308    82131151.305          49.200          47.500          49.000          49.800  
R01  21626750.953    21626750.609                                   115607386.190   115607373.188                                          41.500          39.900                                  
E03  26578275.703    26578288.105    26578285.902    26578288.711   139669783.126   104298848.078   107019687.417   105659259.856          42.300          41.900          44.300          48.500  
E13  25544886.000    25544895.844    25544893.406    25544895.938   134239288.034   100243599.032   102858648.119   101551119.183          43.400          44.900          45.900          51.000  
E15  23478768.656    23478776.277    23478774.402    23478776.820   123381760.455    92135750.406    94539231.176    93337549.401          48.400          49.000          50.400          55.700  
E21  26068842.641    26068850.398    26068847.211    26068850.680   136992687.305   102299755.507   104968441.276   103634121.502          43.300          43.400          43.600          49.200  
E27  24648176.758    24648184.898    24648182.270    24648185.125   129527038.836    96724719.850    99247972.902    97986339.487          47.000          48.000          49.700          54.400  
E05  25246486.156    25246496.820    25246494.523    25246497.156   132671184.097    99072617.122   101657119.890   100364863.611          40.000          39.800          42.100          46.500  
E30  27097503.125    27097517.297    27097513.875    27097517.250   142398330.319   106336394.516   109110387.703   107723387.219          42.700          43.400          43.700          49.100  
C04  38464831.078    38464830.867   200296470.833   154881934.464          37.000          40.100  
C03  37450242.594    37450242.727   195013242.621   150796604.135          38.900          41.100  
C02  38923762.273    38923762.512   202686324.427   156729859.130          35.200          39.400  
C01  38008418.313    38008420.523   197919806.366   153044156.578          37.600          42.300  
C30  22410355.211                   116696598.042                          47.600                  
C29  21909434.414                   114088175.128                          48.200                  
C20  23343262.195                   121554492.542                          45.700                  
C13  38528671.188    38528679.355   200628899.319   155138977.720          39.800          40.500  
> 2025 04 10 07 06 25.0000000  0 31
G17  21165993.422                    21166001.336   111228043.195                    86671230.775          45.700                          46.100  
G11  22602495.875                    22602503.996   118776914.928                    92553472.555          42.600                          45.400  
G09  22844720.719                    22844732.746   120049817.532                    93545337.601          42.300                          44.400  
G19  19727426.148    19727429.957                   103668322.061    80780527.692                          49.000          43.100                  
G22  23016109.695    23016118.551                   120950467.676    94247152.568                          41.100          27.000                  
G03  23480952.586                    23480964.625   123393233.279                    96150622.686          38.800                          40.400  
G04  23001972.477                    23001982.867   120876177.047                    94189273.844          40.700                          43.300  
G06  20750267.305                    20750277.215   109043388.564                    84968915.654          47.200                          49.000  
G12  23340540.344                    23340548.070   122655372.999                    95575634.300          39.900                          39.500  
R24  22547121.156    22547120.340    22547132.047    22547131.922   120569583.173   120569574.211    93776332.490    93776338.502          43.200          41.200          43.800          45.100  
R18  20903927.789    20903926.363    20903935.285    20903934.742   111586608.456   111586573.458    86789557.500    86789561.512          46.200          44.300          47.600          47.500  
R03  22470508.625    22470507.602    22470522.148    22470521.531   120286397.896   120286383.902    93556087.701    93556093.699          44.400          43.100          43.200          44.700  
R02  20279149.445    20279148.828    20279157.988    20279157.879   108213426.828   108213416.840    84165991.498    84165997.502          47.000          45.400          48.200          48.300  
R16  21624024.922    21624023.762    21624033.531    21624033.656   115511655.960   115511640.965    89842387.233    89842394.245          45.200          43.700          46.900          46.700  
R17  19733116.875    19733115.234    19733123.785    19733123.438   105595890.688   105595877.686    82130129.429    82130134.432          49.600          47.900          48.900          49.800  
R01  21628529.852    21628528.805                                   115616887.271   115616874.288                                          40.900          39.200                                  
E03  26575484.719    26575497.215    26575494.680    26575497.531   139655115.287   104287894.840   107008448.438   105648163.744          42.100          42.500          44.400          48.900  
E13  25542736.422    25542746.141    25542744.453    25542746.551   134227992.850   100235164.324   102849993.385   101542574.462          42.600          44.900          46.400          51.300  
E15  23478452.789    23478460.371    23478458.309    23478460.809   123380099.691    92134510.208    94537958.626    93336293.025          48.700          49.700          50.400          56.000  
E21  26067108.664    26067116.883    26067114.066    26067117.406   136983578.622   102292953.501   104961461.824   103627230.771          42.700          43.100          43.800          49.100  
E27  24649074.570    24649083.125    24649080.594    24649083.160   129531757.709    96728243.686    99251588.675    97989909.291          46.700          47.400          48.200          53.700  
E05  25245616.953    25245627.887    25245625.586    25245628.238   132666617.597    99069207.042   101653620.854   100361409.055          41.200          40.600          42.800          47.400  
E30  27099948.766    27099962.785    27099960.395    27099963.199   142411183.106   106345992.279   109120235.870   107733110.188          42.600          42.700          44.100          49.200  
C04  38464254.414    38464254.746   200293470.997   154879614.829          36.500          40.100  
C03  37449686.172    37449686.145   195010345.871   150794364.163          39.200          41.200  
C02  38923184.469    38923182.625   202683308.667   156727527.176          36.400          38.800  
C01  38007869.875    38007871.359   197916947.590   153041945.972          38.300          42.800  
C30  22411205.797                   116701025.404                          47.200                  
C29  21907718.898                   114079242.886                          48.100                  
C20  23340249.570                   121538804.636                          45.400                  
C13  38527152.789    38527161.195   200620992.918   155132863.971          41.400          41.400  
> 2025 04 10 07 06 30.0000000  0 31
G17  21167078.453                    21167086.164   111233744.517                    86675673.360          45.300                          46.400  
G11  22599817.008                    22599825.305   118762838.587                    92542503.977          42.500                          44.900  
G09  22841769.578                    22841781.359   120034312.005                    93533255.398          42.900                          44.300  
G19  19726945.477    19726948.930                   103665794.899    80778558.476                          48.800          42.800                  
G22  23018537.281    23018546.652                   120963224.966    94257093.278                          41.000          26.100                  
G03  23483780.625                    23483793.102   123408094.362                    96162202.720          38.800                          41.500  
G04  23000438.328                    23000447.762   120868111.569                    94182989.072          41.000                          43.900  
G06  20749027.148                    20749036.555   109036869.297                    84963835.706          48.200                          48.700  
G12  23338129.547                    23338136.906   122642704.689                    95565762.868          39.800                          38.100  
R24  22549095.727    22549094.793    22549106.273    22549106.223   120580139.903   120580130.896    93784543.242    93784549.246          43.000          41.700          44.400          46.000  
R18  20901428.633    20901428.262    20901437.191    20901436.641   111573270.522   111573235.517    86779183.542    86779187.554          45.900          44.500          47.100          47.300  
R03  22465940.828    22465939.570    22465954.340    22465954.617   120261946.526   120261932.550    93537070.032    93537076.030          44.600          43.100          42.900          44.300  
R02  20277229.992    20277229.023    20277237.715    20277237.348   108203182.718   108203172.715    84158023.845    84158029.855          47.200          46.400          47.700          48.000  
R16  21624537.492    21624535.863    21624545.703    21624545.934   115514395.377   115514380.379    89844517.874    89844524.870          45.900          43.400          46.200          47.000  
R17  19732874.141    19732872.855    19732881.203    19732880.621   105594591.595   105594578.586    82129119.007    82129124.011          49.100          47.500          49.300          49.900  
R01  21630310.133    21630308.969                                   115626407.268   115626394.278                                          40.100          39.400                                  
E03  26572694.125    26572706.660    26572704.457    26572707.211   139640452.948   104276945.729   106997213.691   105637071.819          41.600          43.200          45.100          49.300  
E13  25540587.820    25540597.863    25540594.906    25540597.746   134216700.999   100226732.090   102841341.161   101534032.230          43.700          45.100          46.600          51.300  
E15  23478137.539    23478144.926    23478143.379    23478145.582   123378443.351    92133273.339    94536689.490    93335040.018          49.000          49.100          50.600          55.900  
E21  26065377.461    26065385.602    26065383.211    26065386.191   136974480.942   102286159.800   104954490.902   103620348.460          43.100          43.400          44.100          49.300  
E27  24649974.406    24649983.297    24649980.902    24649983.223   129536487.374    96731775.554    99255212.681    97993487.225          46.600          47.300          48.500          53.800  
E05  25244750.484    25244761.395    25244759.469    25244761.641   132662062.935    99065805.854   101650130.935   100357963.503          41.700          40.600          43.200          47.600  
