     2.11           OBSERVATION DATA    G (GPS)             RINEX VERSION / TYPE
RinEdit             Dataflow Processing 20250128 080004 UTC PGM / RUN BY / DATE
ADE3                                                        MARKER NAME
50109S001                                                   MARKER NUMBER
Monitor Station     NGA                                     OBSERVER / AGENCY
NR035               NOV OEM6            D28CBA70            REC # / TYPE / VERS
762-11400           TPSCR.G5        TPSH                    ANT # / TYPE
 -3939218.6120  3467085.8240 -3613160.7130                  APPROX POSITION XYZ
        0.0000        0.0000        0.0000                  ANTENNA: DELTA H/E/N
     8    P1    L1    D1    S1    P2    L2    D2    S2      # / TYPES OF OBSERV
     1     1                                                WAVELENGTH FACT L1/2
  2025     1    27     0     0    0.0000000     GPS         TIME OF FIRST OBS
                                                            END OF HEADER
 25  1 27  0  0  0.0000000  0  8G10G15G16G18G23G26G27G29
  21159907.93809 -19842880.85309      2167.78809        53.62509  21159910.93809
 -15226992.29009      1689.18609        55.37509
  23110849.31208  -8456916.36308     -1567.91708        47.43808  23110851.21908
  -6352313.16808     -1221.75408        49.06208
  22425720.68808 -14510011.59108       -84.65808        42.75008  22425721.81208
 -11072042.45408       -65.96708        43.81208
  21486231.40608 -19129784.49608     -1196.61908        46.25008  21486232.37509
 -14671646.18809      -932.43009        50.06209
  20059203.34408 -24725998.79708      -775.22508        46.75008  20059203.34409
 -19031660.76509      -604.07109        54.87509
  22843591.56208 -11725806.32608     -2019.62408        46.12508  22843597.34408
  -8902853.53608     -1573.73308        49.00008
  23203142.96908 -10670019.82108      3154.16308        46.81208  23203146.46909
  -8080495.75309      2457.78909        50.62509
  23274046.12508  -9059541.61708     -3034.83908        45.81208  23274050.40608
  -6825430.21308     -2364.81008        49.06208
 25  1 27  0  0 30.0000000  0  8G10G15G16G18G23G26G27G29
  21147574.96909 -19907690.55909      2153.08109        53.75009  21147577.87509
 -15277493.31909      1677.72509        55.06209
  23119843.09408  -8409653.70608     -1582.42708        47.31208  23119844.84408
  -6315485.15508     -1233.06008        48.43808
  22426256.68808 -14507193.17308      -103.16208        42.68808  22426257.81208
 -11069846.33508       -80.38608        43.37508
  21493078.31208 -19093803.38008     -1201.91708        46.43808  21493079.43808
 -14643609.00508      -936.55808        49.62508
  20063672.68808 -24702512.39008      -790.44708        46.75008  20063672.56209
 -19013359.68809      -615.93309        54.62509
  22855152.53108 -11665050.84308     -2030.36408        45.81208  22855158.68808
  -8855511.72208     -1582.10208        48.68808
  23185150.68808 -10764567.20608      3149.03308        47.00008  23185154.15608
  -8154168.96108      2453.79208        49.87508
  23291396.12508  -8968365.53308     -3043.31308        45.43808  23291400.37508
  -6754384.11408     -2371.41308        48.12508
 25  1 27  0  1  0.0000000  0  9G10G15G16G18G23G26G27G29G32
  21135326.50009 -19972057.63309      2138.25209        53.68809  21135329.43809
 -15327649.45509      1666.17009        55.31209
  23128920.15608  -8361954.07708     -1597.15308        47.68808  23128922.25008
  -6278316.68308     -1244.53508        49.00008
  22426898.65608 -14503822.07608      -121.40108        42.62508  22426899.34408
 -11067219.56008       -94.59808        43.56208
  21499955.78108 -19057663.00108     -1207.31708        46.43808  21499956.75008
 -14615447.72108      -940.76608        49.68808
  20068228.65608 -24678570.38208      -805.52708        46.62508  20068228.87509
 -18994703.59209      -627.68409        54.68809
  22866776.12508 -11603972.30408     -2041.21608        46.18808  22866781.21908
  -8807918.18408     -1590.55808        48.62508
  23167188.68808 -10858959.25508      3143.77008        47.37508  23167192.59409
  -8227721.15609      2449.69009        50.75009
  23308795.15608  -8876937.16708     -3051.77508        45.81208  23308798.93808
  -6683141.43708     -2378.00608        48.12508
  25331211.06207    960320.61607      3719.38007        36.68807  25331224.25008
    989668.28908      2898.21808        43.00008
 25  1 27  0  1 30.0000000  0  9G10G15G16G18G23G26G27G29G32
  21123162.03109 -20035981.50609      2123.51809        53.93809  21123165.15609
 -15377460.21909      1654.68909        55.37509
  23138080.03108  -8313818.85508     -1611.63108        47.43808  23138082.34408
  -6240808.75108     -1255.81608        48.62508
  22427645.31208 -14499899.07408      -140.00708        42.62508  22427645.93808
 -11064162.69908      -109.09708        43.50008
  21506863.40608 -19021363.67908     -1212.57308        46.56208  21506864.25008
 -14587162.56908      -944.86208        49.75008
  20072871.31208 -24654174.86408      -820.64908        46.75008  20072870.90609
 -18975694.11509      -639.46709        54.50009
  22878459.40608 -11542573.85508     -2051.76008        45.87508  22878465.46908
  -8760075.36508     -1598.77408        48.75008
  23149256.56208 -10953193.77708      3138.57208        47.56208  23149259.84409
  -8301150.57409      2445.64009        50.56209
  23326241.12508  -8785258.25508     -3060.07608        45.87508  23326245.18808
  -6611703.53008     -2384.47508        48.43808
  25309966.25008    848670.92408      3723.78708        41.93808  25309977.12508
    902668.61908      2901.65208        41.12508
 25  1 27  0  2  0.0000000  0  9G10G15G16G18G23G26G27G29G32
  21111082.37509 -20099461.15109      2108.72809        53.87509  21111085.28109
 -15426924.84909      1643.16509        55.50009
  23147322.59408  -8265249.31108     -1625.94508        47.56208  23147324.96908
  -6202962.42008     -1266.97008        49.00008
  22428496.46908 -14495424.94408      -158.16908        42.62508  22428497.21908
 -11060676.40408      -123.24908        43.43808
  21513801.21908 -18984905.15608     -1217.83208        46.43808  21513802.03108
 -14558753.39308      -948.96008        49.68808
  20077599.34408 -24629327.37808      -835.69308        46.68808  20077599.34409
 -18956332.47209      -651.19009        54.56209
  22890204.03108 -11480858.10408     -2062.40708        46.12508  22890209.75008
  -8711985.30808     -1607.07108        48.93808
  23131354.59408 -11047268.19108      3133.15208        47.25008  23131358.21909
  -8374455.25909      2441.41709        50.56209
  23343734.75008  -8693330.09008     -3068.26208        45.93808  23343738.53108
  -6540071.41908     -2390.85308        48.43808
  25288696.37508    736900.58308      3727.62008        43.12508  25288708.53108
    815574.85108      2904.63908        43.12508
 25  1 27  0  2 30.0000000  0 10G10G13G15G16G18G23G26G27G29G32
  21099087.37509 -20162495.92509      2093.87709        53.81209  21099090.00009
 -15476042.81609      1631.59209        55.37509
  25102936.43806     33434.78106     -1988.49106        25.12506  25102941.25006
     22724.88906     -1549.47406        27.37506
  23156647.06208  -8216247.03508     -1640.51308        47.06208  23156649.71908
  -6164778.89808     -1278.32208        48.81208
  22429452.87508 -14490400.29108      -176.64808        42.56208  22429453.56208
 -11056761.12808      -137.64808        43.43808
  21520769.28108 -18948287.61508     -1223.21008        46.62508  21520770.28108
 -14530220.28208      -953.15108        49.43808
  20082413.09408 -24604029.90608      -850.66208        46.37508  20082413.18809
 -18936620.15509      -662.85309        54.43809
  22902008.34408 -11418828.11608     -2072.81008        45.68808  22902013.28108
  -8663650.37308     -1615.17708        48.43808
  23113483.34408 -11141180.20908      3127.72508        47.18808  23113487.15609
  -8447633.37509      2437.18809        50.62509
  23361275.15608  -8601153.91508     -3076.53608        45.62508  23361279.28108
  -6468246.03708     -2397.30108        48.25008
  25267405.25008    625011.75908      3731.44808        43.31208  25267416.75008
    728388.79408      2907.62208        44.00008
 25  1 27  0  3  0.0000000  0  9G10G15G16G18G23G26G27G29G32
  21087177.09409 -20225085.04609      2078.88909        53.87509  21087179.68809
 -15524813.52809      1619.91409        55.75009
  23166054.06208  -8166813.26008     -1655.01708        47.37508  23166056.43808
  -6126259.13508     -1289.62408        49.37508
  22430513.62508 -14484826.19908      -195.09508        42.87508  22430514.12508
 -11052417.71608      -152.02208        43.50008
  21527767.93808 -18911511.03808     -1228.59108        46.62508  21527768.50008
 -14501563.27108      -957.34408        49.68808
  20087312.62508 -24578284.25908      -865.60108        46.43808  20087312.56209
 -18916558.63209      -674.49409        54.68809
  22913870.62508 -11356486.72508     -2083.13708        45.50008  22913877.06208
  -8615072.79408     -1623.22408        48.87508
  23095644.31208 -11234927.39508      3122.29708        47.56208  23095647.25009
  -8520683.07509      2432.95909        50.37509
  23378863.09408  -8508731.56808     -3084.81008        45.50008  23378867.09408
  -6396228.84608     -2403.74808        48.37508
  25246091.40607    513006.83007      3735.16107        39.56207  25246101.87508
    641112.31708      2910.51508        42.31208
 25  1 27  0  3 30.0000000  0  9G10G15G16G18G23G26G27G29G32
  21075351.78109 -20287227.67109      2063.99409        53.93809  21075354.37509
 -15573236.31709      1608.30709        55.50009
  23175542.65608  -8116949.51708     -1669.20908        47.00008  23175545.78109
  -6087404.32209     -1300.68209        50.06209
  22431678.75008 -14478703.10008      -213.02008        42.81208  22431679.65608
 -11047646.50708      -165.99008        43.50008
  21534796.62508 -18874575.30808     -1233.77908        46.75008  21534797.31208
 -14472782.22708      -961.38608        49.43808
  20092296.62508 -24552092.17408      -880.37808        46.43808  20092296.78109
 -18896149.22609      -686.00909        54.56209
  22925792.84408 -11293836.69608     -2093.34508        45.12508  22925799.25008
  -8566254.72508     -1631.17808        48.81208
  23077836.37508 -11328507.14808      3116.50608        47.43808  23077839.71909
  -8593602.31709      2428.44709        50.43809
  23396496.90608  -8416064.45408     -3093.05408        45.62508  23396501.15608
  -6324020.93808     -2410.17208        47.87508
  25224756.28108    400888.46308      3739.24808        42.25008  25224766.68808
    553747.49008      2913.70008        40.31208
 25  1 27  0  4  0.0000000  0 10G10G13G15G16G18G23G26G27G29G32
  21063611.40609 -20348923.23109      2049.08709        53.81209  21063614.06209
 -15621310.75709      1596.69109        55.62509
  25137342.56206    214232.84106     -2029.11606        27.12506          .00000
          .00000          .00000          .00000
  23185113.06208  -8066657.36608     -1683.53808        46.68808  23185116.18809
  -6048215.72409     -1311.84809        50.75009
  22432948.28108 -14472031.95608      -231.46208        42.81208  22432949.62508
 -11042448.26708      -180.36008        43.68808
  21541855.65608 -18837480.57308     -1239.25308        46.56208  21541856.18808
 -14443877.28408      -965.65208        49.50008
  20097365.28108 -24525455.68108      -895.43208        46.31208  20097365.62509
 -18875393.55209      -697.73909        54.75009
  22937773.18808 -11230881.09408     -2103.78408        45.50008  22937778.75008
  -8517198.56408     -1639.31208        48.43808
  23060061.15608 -11421917.27808      3110.80808        47.18808  23060064.43809
  -8666389.37909      2424.00609        50.81209
  23414177.18808  -8323154.06108     -3101.04508        45.37508  23414182.00008
  -6251623.45108     -2416.39908        48.25008
  25203399.31208    288659.02508      3742.86908        43.18808  25203410.53108
    466295.96308      2916.52108        42.12508
 25  1 27  0  4 30.0000000  0 10G10G13G15G16G18G23G26G27G29G32
  21051956.28109 -20410170.62009      2034.24309        53.68809  21051959.12509
 -15669035.97309      1585.12509        55.37509
  25148962.59406    275298.35906     -2042.18306        26.37506          .00000
          .00000          .00000          .00000
  23194765.06208  -8015938.10208     -1697.57808        47.56208  23194767.68808
  -6008694.31308     -1322.78808        49.06208
  22434322.18808 -14464813.42008      -249.52608        42.81208  22434322.93808
 -11036823.46908      -194.43608        43.56208
  21548944.84408 -18800226.51608     -1244.41908        46.68808  21548945.59408
 -14414848.20408      -969.67708        49.37508
  20102518.46908 -24498376.30208      -909.88508        46.50008  20102518.68809
 -18854292.75909      -709.00209        54.37509
  22949811.09408 -11167622.51008     -2113.46408        45.62508  22949816.68808
  -8467906.29408     -1646.85508        48.06208
  23042317.84408 -11515154.96508      3105.19308        46.93808  23042322.46909
  -8739042.05909      2419.63109        51.06209
  23431903.93808  -8230001.60408     -3108.94008        45.37508  23431908.46908
  -6179037.38508     -2422.55108        48.25008
  25182021.81208    176321.29308      3746.40908        41.68808  25182032.78108
    378760.14008      2919.28008        43.31208
 25  1 27  0  5  0.0000000  0  9G10G15G16G18G23G26G27G29G32
  21040386.50009 -20470969.52109      2019.12609        53.62509  21040389.37509
 -15716411.70309      1573.34509        55.31209
  23204497.25008  -7964793.40108     -1712.05608        47.43808  23204499.68808
  -5968841.35108     -1334.06908        48.50008
  22435799.71908 -14457048.60708      -267.99608        43.00008  22435800.62508
 -11030773.00808      -208.82808        43.50008
  21556064.43808 -18762813.42308     -1249.87108        46.68808  21556065.00008
 -14385695.17308      -973.92508        49.06208
  20107755.50008 -24470856.18108      -924.70208        46.50008  20107755.43809
 -18832848.53509      -720.54709        54.43809
  22961905.78108 -11104064.15708     -2123.60608        45.62508  22961912.00008
  -8418380.43308     -1654.75808        48.37508
  23024608.68808 -11608218.05208      3099.12608        47.56208  23024612.50009
  -8811558.69209      2414.90309        50.87509
  23449676.28108  -8136608.90108     -3117.24108        45.50008  23449680.34408
  -6106264.09308     -2429.01908        47.62508
  25160624.06208     63877.49008      3749.67308        41.06208  25160636.56208
    291141.66608      2921.82308        44.37508
 25  1 27  0  5 30.0000000  0  9G10G15G16G18G23G26G27G29G32
  21028902.43809 -20531318.98809      2004.21109        53.93809  21028905.25009
 -15763437.22509      1561.72309        55.62509
  23214311.18808  -7913224.59808     -1725.88608        48.18808  23214312.71908
  -5928657.90208     -1344.84608        48.25008
  22437381.12508 -14448738.42608      -286.02308        42.75008  22437382.46908
 -11024297.58308      -222.87508        44.00008
  21563213.87508 -18725241.08508     -1255.08508        46.56208  21563214.78108
 -14356418.06808      -977.98908        49.43808
  20113075.78108 -24442897.08008      -939.15308        46.68808  20113075.93809
 -18811062.23009      -731.80709        54.56209
  22974056.93808 -11040208.78108     -2133.33308        45.18808  22974063.28108
  -8368623.14108     -1662.33708        48.56208
  23006933.06208 -11701103.90408      3093.24008        47.56208  23006936.68809
  -8883937.21609      2410.31709        50.93809
  23467493.65608  -8042977.46108     -3124.98308        45.68808  23467498.12508
  -6033304.74808     -2435.05208        47.93808
  25139206.37507    -48669.79807      3753.40607        38.81207  25139218.71908
    203442.67508      2924.73208        43.56208
 25  1 27  0  6  0.0000000  0  9G10G15G16G18G23G26G27G29G32
  21017503.81209 -20591218.36409      1988.90409        53.87509  21017506.75009
 -15810112.03309      1549.79509        55.62509
  23224204.46908  -7861233.35308     -1740.32008        47.18808  23224206.56208
  -5888145.31708     -1356.09308        48.62508
  22439065.78108 -14439883.35408      -304.60208        42.68808  22439067.65608
 -11017397.56308      -237.35208        44.06208
  21570394.09408 -18687509.44708     -1260.55408        46.37508  21570394.84408
 -14327016.81908      -982.25008        49.50008
  20118479.62508 -24414500.77208      -953.98908        46.68808  20118479.78109
 -18788935.26009      -743.36809        54.75009
  22986264.53108 -10976059.20308     -2143.50608        45.18808  22986271.31208
  -8318636.61708     -1670.26408        48.87508
  22989291.65608 -11793810.02508      3086.92908        47.37508  22989294.81209
  -8956175.68509      2405.39909        50.43809
  23485356.25008  -7949108.60308     -3133.04408        45.37508  23485360.93808
  -5960160.42808     -2441.33308        48.12508
  25117771.37508   -161317.64008      3756.43608        43.25008  25117781.96908
    115665.17808      2927.09308        40.75008
 25  1 27  0  6 30.0000000  0  9G10G15G16G18G23G26G27G29G32
  21006191.06209 -20650667.03409      1974.13109        53.81209  21006194.06209
 -15856435.64809      1538.28409        55.43809
  23234177.96908  -7808821.25308     -1754.16308        47.12508  23234180.28108
  -5847304.78208     -1366.88008        48.62508
  22440854.56208 -14430484.75808      -322.40008        42.87508  22440855.81208
 -11010074.02808      -251.22108        43.75008
  21577604.43808 -18649618.48508     -1265.79608        46.31208  21577605.06208
 -14297491.43208      -986.33408        49.00008
  20123966.12508 -24385669.25308      -968.39408        46.75008  20123966.40609
 -18766469.17009      -754.59209        54.43809
  22998527.15608 -10911618.48308     -2152.92008        45.25008  22998533.93808
  -8268423.21208     -1677.60008        48.31208
  22971685.03108 -11886333.98408      3081.04208        47.31208  22971688.78109
  -9028272.20609      2400.81209        51.00009
  23503263.75008  -7855003.76708     -3140.84008        45.00008  23503268.90608
  -5886832.22808     -2447.40808        47.75008
  25096315.75008   -274063.75608      3759.69208        43.56208  25096327.90608
     27810.97008      2929.63008        41.43808
 25  1 27  0  7  0.0000000  0  9G10G15G16G18G23G26G27G29G32
  20994964.06209 -20709664.22909      1959.07509        53.93809  20994967.15609
 -15902407.46409      1526.55209        55.37509
  23244231.87508  -7755989.47008     -1767.92208        47.50008  23244233.96908
  -5806137.22708     -1377.60208        48.68808
  22442746.31208 -14420543.19008      -340.41008        42.81208  22442747.90608
 -11002327.38008      -265.25508        43.75008
  21584845.09408 -18611568.07808     -1271.03808        46.43808  21584846.00008
 -14267841.80308      -990.41908        49.06208
  20129534.96908 -24356404.29708      -982.62708        46.75008  20129535.18809
 -18743665.33109      -765.68309        54.37509
  23010845.68808 -10846889.35308     -2162.54608        45.87508  23010851.18808
  -8217985.08208     -1685.10108        47.93808
  22954113.56208 -11978673.18008      3074.82708        47.81208  22954117.40609
  -9100224.74309      2395.96909        51.56209
  23521216.46908  -7760664.38408     -3148.48608        45.68808  23521221.90608
  -5813321.25608     -2453.36608        48.43808
  25074840.62507   -386905.60007      3762.77607        36.37507  25074854.84408
    -60117.64908      2932.03308        44.87508
 25  1 27  0  7 30.0000000  0  9G10G15G16G18G23G26G27G29G32
  20983823.31209 -20768209.46409      1943.97909        53.75009  20983826.37509
 -15948027.09009      1514.78909        55.75009
  23254365.21908  -7702739.87308     -1781.87308        47.50008  23254367.59408
  -5764644.08508     -1388.47208        49.12508
  22444741.28108 -14410059.76308      -358.39608        42.50008  22444742.68808
 -10994158.52508      -279.27008        43.81208
  21592116.25008 -18573358.36008     -1276.19108        46.37508  21592117.21908
 -14238068.01408      -994.43508        49.43808
  20135186.18808 -24326707.94408      -997.01208        46.68808  20135186.25009
 -18720525.33909      -776.89209        54.56209
  23023217.06208 -10781874.97608     -2171.87308        45.12508  23023222.28108
  -8167324.66208     -1692.36808        47.50008
  22936577.62508 -12070825.29108      3068.66208        47.93808  22936581.18809
  -9172031.50209      2391.16509        51.50009
  23539213.21908  -7666092.50508     -3156.18708        45.31208  23539218.03108
  -5739629.13208     -2459.36608        48.37508
  25053352.21908   -499840.66008      3765.99608        42.12508  25053364.21908
   -148118.79608      2934.54208        45.81208
 25  1 27  0  8  0.0000000  0  9G10G15G16G18G23G26G27G29G32
  20972768.71909 -20826302.00609      1928.77709        54.06209  20972771.65609
 -15993293.97209      1502.94309        55.56209
  23264577.43808  -7649073.71808     -1795.77908        47.93808  23264579.53108
  -5722826.38208     -1399.30808        48.37508
  22446839.21908 -14399035.41708      -376.45508        43.00008  22446840.62508
 -10985568.15608      -293.34208        43.75008
  21599417.62508 -18534989.15508     -1281.73308        46.56208  21599418.75008
 -14208169.95608      -998.75308        49.25008
  20140918.87508 -24296582.01708     -1011.31308        46.68808  20140919.15609
 -18697050.61009      -788.03609        54.50009
  23035642.43808 -10716578.12208     -2181.34508        45.25008  23035648.71908
  -8116444.13908     -1699.75008        48.00008
  22919077.65608 -12162787.69108      3062.23608        48.06208  22919081.18809
  -9243690.43809      2386.15809        51.31209
  23557254.21908  -7571289.42408     -3163.94308        45.31208  23557259.12508
  -5665756.83708     -2465.41008        47.87508
  25031844.53108   -612866.09108      3768.99908        44.68808  25031856.12508
   -236190.49908      2936.88208        43.56208
 25  1 27  0  8 30.0000000  0  9G10G15G16G18G23G26G27G29G32
  20961800.43809 -20883941.36609      1913.82309        53.93809  20961803.28109
 -16038207.72109      1491.29109        55.62509
  23274868.53108  -7594992.86408     -1809.53108        47.56208  23274871.18808
  -5680685.50208     -1410.02408        49.56208
  22449039.96908 -14387471.45908      -394.45108        42.75008  22449040.87508
 -10976557.31908      -307.36408        43.50008
  21606749.43808 -18496460.44708     -1287.05808        46.31208  21606750.56208
 -14178147.62008     -1002.90208        49.31208
  20146733.15608 -24266028.47108     -1025.57408        46.75008  20146733.06209
 -18673242.67609      -799.14809        54.18809
  23048121.25008 -10651001.82108     -2190.49108        45.00008  23048128.15608
  -8065345.86508     -1706.87608        48.25008
  22901614.15608 -12254557.98308      3055.79808        47.87508  22901617.37509
  -9315199.68909      2381.14209        51.06209
  23575337.90608  -7476256.63208     -3171.62808        44.68808  23575343.28108
  -5591705.55108     -2471.39908        47.43808
  25010319.00008   -725979.44208      3771.74108        41.87508  25010330.43808
   -324330.76408      2939.01908        41.56208
 25  1 27  0  9  0.0000000  0  9G10G15G16G18G23G26G27G29G32
  20950918.53109 -20941126.84509      1898.68209        54.06209  20950921.12509
 -16082767.81309      1479.49209        55.56209
  23285238.28108  -7540498.89808     -1823.40808        46.93808  23285241.21908
  -5638222.77608     -1420.83808        49.81208
  22451343.34408 -14375368.85908      -412.49808        42.87508  22451344.37508
 -10967126.79408      -321.42708        43.68808
  21614111.68808 -18457772.13708     -1292.39008        46.56208  21614112.59408
 -14148000.92108     -1007.05708        49.12508
  20152628.09408 -24235049.22708     -1039.71408        46.75008  20152628.31209
 -18649103.03909      -810.16709        54.31209
  23060652.43808 -10585148.96708     -2199.74408        44.68808  23060659.71908
  -8014032.12908     -1714.08608        48.25008
  22884187.75008 -12346133.55808      3049.14808        48.06208  22884190.81209
  -9386557.23009      2375.95909        51.06209
  23593465.65608  -7380995.75408     -3179.21608        45.00008  23593471.03108
  -5517476.55308     -2477.31208        47.68808
  24988776.00007   -839178.34507      3774.67507        38.62507  24988788.56208
   -412537.67508      2941.30508        40.43808
 25  1 27  0  9 30.0000000  0  9G10G15G16G18G23G26G27G29G32
  20940123.00009 -20997857.85809      1883.47709        54.06209  20940125.43809
 -16126973.77309      1467.64409        55.68809
  23295686.43808  -7485593.25708     -1837.07808        46.56208  23295689.28108
  -5595439.24408     -1431.48908        49.43808
  22453748.53108 -14362728.55108      -430.22508        42.56208  22453749.65608
 -10957277.24108      -335.24008        43.50008
  21621504.50008 -18418924.14808     -1297.54408        46.50008  21621505.12508
 -14117729.79808     -1011.07308        49.18808
  20158604.03108 -24203646.17708     -1053.67408        46.68808  20158604.09409
 -18624633.16009      -821.04509        54.18809
  23073236.71908 -10519022.46508     -2208.56008        45.12508  23073242.43808
  -7962505.12608     -1720.95608        47.25008
  22866798.96908 -12437511.87908      3042.66408        48.12508  22866802.50009
  -9457761.06209      2370.90709        51.12509
  23611637.06208  -7285508.03908     -3186.62808        45.25008  23611641.96908
  -5443070.78608     -2483.08708        48.12508
  24967221.96908   -952459.82708      3777.40508        43.18808  24967233.00008
   -500808.88108      2943.43208        45.25008
 25  1 27  0 10  0.0000000  0  9G10G15G16G18G23G26G27G29G32
  20929413.87509 -21054133.89809      1868.33509        54.18809  20929416.59409
 -16170825.19909      1455.84509        56.06209
  23306213.25008  -7430277.73408     -1850.65408        46.43808  23306215.46908
  -5552336.34708     -1442.06808        48.87508
  22456255.56208 -14349551.51608      -448.06208        42.50008  22456257.09408
 -10947009.46108      -349.13908        43.56208
  21628927.40608 -18379916.41608     -1302.95208        46.56208  21628928.40608
 -14087334.19508     -1015.28708        49.62508
  20164660.03108 -24171821.27508     -1067.85908        46.75008  20164660.25009
 -18599834.55609      -832.09809        54.50009
  23085871.50008 -10452625.28508     -2217.59308        45.43808  23085878.12508
  -7910767.22108     -1727.99408        48.37508
  22849448.34408 -12528690.47708      3035.90308        48.31208  22849452.40609
  -9528809.26109      2365.63909        52.06209
  23629850.21908  -7189795.36908     -3194.13308        44.87508  23629855.71908
  -5368489.74208     -2488.93508        48.68808
  24945649.75008  -1065821.28608      3780.08508        44.50008  24945661.62508
   -589142.39808      2945.52108        46.75008
 25  1 27  0 10 30.0000000  0  9G10G15G16G18G23G26G27G29G32
  20918791.50009 -21109954.57309      1853.18609        53.75009  20918794.15609
 -16214321.80909      1444.04109        56.06209
  23316816.90608  -7374553.99308     -1864.38708        46.31208  23316819.40608
  -5508915.30108     -1452.76908        48.06208
  22458865.56208 -14335839.07508      -466.06708        42.50008  22458866.34408
 -10936324.51108      -363.16908        43.68808
  21636380.90608 -18340749.01708     -1308.21308        46.43808  21636381.31208
 -14056814.18408     -1019.38708        49.25008
  20170795.93808 -24139576.62708     -1081.72408        46.56208  20170796.21909
 -18574708.88509      -842.90209        54.43809
  23098557.31208 -10385960.55008     -2226.62808        44.81208  23098563.81208
  -7858820.83608     -1735.03508        47.62508
  22832136.06208 -12619666.92208      3028.95308        47.93808  22832139.46909
  -9599699.94709      2360.22309        51.56209
  23648106.40608  -7093859.32808     -3201.67508        44.18808  23648111.50008
  -5293734.66108     -2494.81208        47.75008
  24924060.96908  -1179260.40908      3782.54608        40.62508  24924073.75008
   -677536.45708      2947.43908        42.43808
 25  1 27  0 11  0.0000000  0  9G10G15G16G18G23G26G27G29G32
  20908255.90609 -21165319.29009      1837.81209        54.06209  20908258.56209
 -16257463.13209      1432.06209        56.12509
  23327498.25008  -7318423.56408     -1877.78608        46.93808  23327500.81208
  -5465177.38908     -1463.21008        48.06208
  22461576.56208 -14321592.41008      -483.69608        42.87508  22461578.03108
 -10925223.26308      -376.90608        43.87508
  21643864.43808 -18301421.82108     -1313.61108        46.50008  21643865.21908
 -14026169.66508     -1023.59308        49.25008
  20177011.37508 -24106914.12308     -1095.63008        46.75008  20177011.65609
 -18549257.60909      -853.73809        54.31209
  23111293.81208 -10319031.16708     -2235.39108        44.75008  23111300.43808
  -7806668.22408     -1741.86308        47.87508
  22814863.06208 -12710438.67708      3022.33408        48.56208  22814866.18809
  -9670431.13009      2355.06509        51.31209
  23666405.40608  -6997701.79508     -3208.83108        44.93808  23666409.81208
  -5218806.95108     -2500.38708        47.18808
  24902460.87507  -1292774.56407      3785.00507        39.75007  24902471.00007
   -765989.00207      2949.35407        39.93807
 25  1 27  0 11 30.0000000  0  9G10G15G16G18G23G26G27G29G32
  20897807.18809 -21220227.53909      1822.67309        54.18809  20897809.90609
 -16300248.76209      1420.26509        56.12509
  23338256.65608  -7261888.35908     -1891.21308        47.37508  23338259.59408
  -5421124.07008     -1473.67308        48.87508
  22464388.96908 -14306812.67008      -501.68208        43.00008  22464390.71908
 -10913706.63408      -390.92108        44.12508
  21651378.50008 -18261934.73208     -1318.90108        46.75008  21651379.43808
 -13995400.55408     -1027.71508        49.31208
  20183306.15608 -24073835.71808     -1109.51908        46.93808  20183306.34409
 -18523482.26009      -864.56009        54.31209
  23124080.43808 -10251840.07408     -2244.07708        45.25008  23124086.50008
  -7754311.71708     -1748.63208        48.00008
  22797629.00008 -12801003.07608      3015.20508        48.75008  22797632.00009
  -9741000.77609      2349.51009        51.25009
  23684746.28108  -6901323.96708     -3216.18708        45.75008  23684750.90608
  -5143707.60408     -2506.11908        48.00008
  24880846.81208  -1406360.92508      3787.41708        43.31208  24880857.50008
   -854497.79408      2951.23408        42.12508
 25  1 27  0 12  0.0000000  0  9G10G15G16G18G23G26G27G29G32
  20887445.53109 -21274678.57209      1807.45409        53.93809  20887448.25009
 -16342678.12009      1408.40509        56.12509
  23349092.18808  -7204949.48508     -1904.60208        47.81208  23349095.25008
  -5376756.18908     -1484.10508        49.00008
  22467303.09408 -14291500.76108      -519.34608        42.75008  22467304.00008
 -10901775.32408      -404.68508        43.62508
  21658923.43808 -18222287.39008     -1324.20208        46.62508  21658924.12508
 -13964506.56008     -1031.84508        49.25008
  20189679.81208 -24040343.15508     -1123.30308        46.81208  20189679.81209
 -18497384.17709      -875.30109        54.06209
  23136915.68808 -10184390.09408     -2252.51708        45.06208  23136922.25008
  -7701753.44908     -1755.20808        47.75008
  22780435.59408 -12891357.47408      3008.35908        48.75008  22780438.37509
  -9811406.75709      2344.17609        51.37509
  23703127.59408  -6804727.28108     -3223.50808        44.93808  23703133.37508
  -5068437.73608     -2511.82508        48.62508
  24859219.25008  -1520016.50908      3789.72708        44.93808  24859230.81208
   -943060.52008      2953.03408        45.87508
 25  1 27  0 12 30.0000000  0  9G10G15G16G18G23G26G27G29G32
  20877170.78109 -21328672.26309      1792.32909        53.93809  20877173.62509
 -16384751.10309      1396.62009        56.12509
  23360003.87508  -7147608.84808     -1917.85608        47.37508  23360006.25008
  -5332075.26408     -1494.43408        49.12508
  22470317.43808 -14275658.10208      -536.70408        42.50008  22470318.62508
 -10889430.44508      -418.21108        43.43808
  21666498.15608 -18182480.01408     -1329.45108        46.18808  21666499.06208
 -13933487.88308     -1035.93608        48.93808
  20196131.50008 -24006438.72408     -1136.87708        46.68808  20196131.84409
 -18470965.16709      -885.87909        54.12509
  23149799.75008 -10116684.39808     -2260.94208        44.81208  23149806.53108
  -7648995.93608     -1761.77308        48.00008
  22763281.34408 -12981499.55008      3001.20108        48.43808  22763285.43809
  -9881647.28209      2338.59809        51.50009
  23721550.68808  -6707913.54008     -3230.73508        44.37508  23721556.62508
  -4992998.74808     -2517.45608        48.37508
  24837577.81208  -1633739.15708      3791.94608        41.43808  24837589.18808
  -1031675.44908      2954.76308        44.93808
 25  1 27  0 13  0.0000000  0  9G10G15G16G18G23G26G27G29G32
  20866983.18809 -21382207.92709      1777.01909        54.00009  20866986.00009
 -16426467.18609      1384.69009        56.12509
  23370991.03108  -7089868.23508     -1931.28908        46.56208  23370993.62508
  -5287082.66908     -1504.90108        48.12508
  22473433.56208 -14259286.05808      -554.55108        43.06208  22473434.34408
 -10876673.04208      -432.11708        43.50008
  21674103.71908 -18142512.38608     -1334.80708        46.25008  21674104.78108
 -13902344.31908     -1040.10908        48.93808
  20202661.21908 -23972124.24608     -1150.51008        46.75008  20202661.31209
 -18444226.62709      -896.50209        53.93809
  23162731.81208 -10048725.82408     -2269.32608        45.18808  23162738.81208
  -7596041.36108     -1768.30608        47.93808
  22746169.21908 -13071426.58208      2994.00108        48.68808  22746172.15609
  -9951720.25009      2332.98809        51.50009
  23740015.12508  -6610884.36708     -3237.90508        44.87508  23740020.21908
  -4917391.88908     -2523.04308        47.50008
  24815923.28107  -1747526.14807      3794.05007        39.50007  24815936.00008
  -1120340.43208      2956.40308        42.62508
 25  1 27  0 13 30.0000000  0  9G10G15G16G18G23G26G27G29G32
  20856882.93809 -21435285.24509      1761.71409        54.25009  20856885.75009
 -16467826.11509      1372.76409        56.25009
  23382055.09408  -7031729.17408     -1944.42908        47.25008  23382057.31208
  -5241779.60608     -1515.13908        48.81208
  22476650.00008 -14242385.78808      -571.86508        43.18808  22476650.40608
 -10863504.05008      -445.60908        43.37508
  21681740.00008 -18102384.42608     -1340.24208        46.62508  21681740.71908
 -13871075.84408     -1044.34408        48.93808
  20209269.00008 -23937401.75508     -1164.20908        47.00008  20209269.06209
 -18417170.17709      -907.17609        54.06209
  23175711.71908  -9980517.47708     -2277.68608        45.31208  23175718.62508
  -7542892.19408     -1774.82008        48.12508
  22729097.62508 -13161136.06208      2986.69708        49.18808  22729101.31209
 -10021623.67909      2327.29609        51.81209
  23758520.65608  -6513641.35508     -3244.91208        46.18808  23758525.18808
  -4841618.37308     -2528.50308        47.31208
  24794260.65608  -1861374.59108      3795.91108        44.75008  24794271.06208
  -1209053.42908      2957.85308        42.06208
 25  1 27  0 14  0.0000000  0  9G10G15G16G18G23G26G27G29G32
  20846869.87509 -21487903.83109      1746.33809        54.00009  20846872.71909
 -16508827.58309      1360.78309        56.18809
  23393193.90608  -6973193.76108     -1957.54208        46.68808  23393196.15608
  -5196167.66508     -1525.35708        48.81208
  22479965.46908 -14224958.40408      -589.59508        42.68808  22479967.12508
 -10849924.31608      -459.42408        43.56208
  21689406.81208 -18062096.09208     -1345.52708        46.37508  21689407.56208
 -13839682.39008     -1048.46308        48.81208
  20215953.40608 -23902273.35908     -1177.53208        46.62508  20215953.75009
 -18389797.40609      -917.55709        54.00009
  23188738.59408  -9912062.33808     -2285.90308        45.00008  23188745.34408
  -7489550.70108     -1781.22308        47.81208
  22712068.50008 -13250625.53008      2979.35108        49.25008  22712071.37509
 -10091355.68009      2321.57209        51.25009
  23777065.00008  -6416185.85708     -3251.85108        44.37508  23777070.71908
  -4765679.28108     -2533.91008        47.31208
  24772583.93808  -1975281.96508      3798.00008        43.37508  24772595.09408
  -1297812.33708      2959.48108        43.43808
 25  1 27  0 14 30.0000000  0  9G10G15G16G18G23G26G27G29G32
  20836944.25009 -21540063.31909      1731.07209        54.06209  20836947.18809
 -16549471.32509      1348.88709        56.43809
  23404407.21908  -6914263.63508     -1970.88108        45.00008  23404410.21908
  -5150248.20108     -1535.75208        48.37508
  22483381.65608 -14207005.38608      -607.10408        42.50008  22483383.25008
 -10835935.02008      -473.06808        43.50008
  21697104.09408 -18021647.32708     -1350.94008        46.68808  21697104.71908
 -13808163.93608     -1052.68008        49.06208
  20222715.21908 -23866741.03708     -1190.97708        46.81208  20222715.21909
 -18362109.90709      -928.03409        53.93809
  23201811.31208  -9843363.51808     -2293.96508        44.56208  23201818.62508
  -7436019.34008     -1787.50508        47.93808
  22695081.68808 -13339892.40108      2971.84608        49.25008  22695084.68809
 -10160914.24609      2315.72409        51.50009
  23795650.18808  -6318520.17508     -3258.96208        44.00008  23795657.15608
  -4689576.47908     -2539.45108        48.56208
  24750897.50008  -2089245.73308      3799.69708        42.00008  24750909.21908
  -1386615.10308      2960.80308        45.68808
 25  1 27  0 15  0.0000000  0  9G10G15G16G18G23G26G27G29G32
  20827106.18809 -21591763.17809      1715.74209        54.06209  20827108.96909
 -16589756.89309      1336.94209        56.12509
  23415697.21908  -6854940.07908     -1983.99908        46.37508  23415698.84408
  -5104022.16008     -1545.97308        47.50008
  22486897.59408 -14188528.06108      -624.68508        42.37508  22486899.46908
 -10821537.13208      -486.76808        43.43808
  21704831.68808 -17981037.86608     -1356.25508        46.43808  21704832.78108
 -13776520.24408     -1056.82208        48.81208
  20229553.06208 -23830806.67408     -1204.45808        46.62508  20229553.34409
 -18334109.12209      -938.53909        53.62509
  23214930.25008  -9774423.77308     -2301.98008        44.93808  23214937.43808
  -7382300.24708     -1793.75108        47.68808
  22678137.31208 -13428933.98708      2964.31408        49.12508  22678140.65609
 -10230297.24109      2309.85509        51.68809
  23814276.12508  -6220645.85908     -3265.96208        45.18808  23814282.40608
  -4613311.10008     -2544.90508        48.37508
  24729200.46908  -2203262.99908      3801.47208        41.81208  24729211.96908
  -1475459.45108      2962.18608        45.12508
 25  1 27  0 15 30.0000000  0  9G10G15G16G18G23G26G27G29G32
  20817355.62509 -21643003.11309      1700.30009        54.25009  20817358.18809
 -16629684.10609      1324.90909        56.31209
  23427060.59408  -6795225.04408     -1996.95808        46.75008  23427062.68808
  -5057491.07308     -1556.07108        47.81208
  22490513.78108 -14169527.82608      -642.07008        42.50008  22490515.21908
 -10806731.81908      -500.31508        43.56208
  21712589.75008 -17940267.72008     -1361.70208        46.31208  21712591.03108
 -13744751.36908     -1061.06608        48.93808
  20236466.96908 -23794472.44008     -1217.85908        46.56208  20236467.46909
 -18305796.76609      -948.98109        53.62509
  23228094.81208  -9705246.28708     -2309.82908        45.31208  23228101.81208
  -7328395.91108     -1799.86708        47.75008
  22661236.84408 -13517747.81208      2956.55508        49.62508  22661240.06209
 -10299502.78309      2303.80909        52.00009
  23832940.87508  -6122564.20008     -3272.85408        45.75008  23832946.37508
  -4536884.14608     -2550.27608        47.81208
  24707494.34408  -2317330.96908      3803.14008        44.75008  24707504.53108
  -1564343.45008      2963.48508        42.43808
 25  1 27  0 16  0.0000000  0  9G10G15G16G18G23G26G27G29G32
  20807692.75009 -21693782.69909      1685.02209        54.00009  20807695.09409
 -16669252.59109      1313.00409        56.25009
  23438497.96908  -6735120.47408     -2009.92408        46.68808  23438500.96908
  -5010656.40908     -1566.17508        48.25008
  22494228.43808 -14150006.10408      -659.47008        42.43808  22494230.03108
 -10791520.14108      -513.87308        43.50008
  21720378.78108 -17899336.63008     -1367.04808        46.06208  21720380.09408
 -13712857.07308     -1065.23208        49.00008
  20243457.12508 -23757740.24108     -1231.06208        46.18808  20243457.40609
 -18277174.29609      -959.26909        53.62509
  23241303.37508  -9635833.92808     -2317.53908        44.62508  23241310.28108
  -7274308.55208     -1805.87508        47.18808
  22644379.87508 -13606331.22908      2948.90608        49.37508  22644383.09409
 -10368528.77609      2297.84909        52.06209
  23851643.53108  -6024276.89308     -3279.79008        44.06208  23851649.18808
  -4460296.93308     -2555.68108        46.37508
  24685778.43808  -2431447.13608      3804.54808        42.56208  24685788.71908
  -1653265.04108      2964.58308        42.68808
 25  1 27  0 16 30.0000000  0  9G10G15G16G18G23G26G27G29G32
  20798117.25009 -21744101.60909      1669.76309        54.31209  20798119.90609
 -16708462.11709      1301.11409        56.43809
  23450009.31208  -6674627.73408     -2022.64208        46.81208  23450012.71908
  -4963519.32308     -1576.08408        49.31208
  22498042.84408 -14129964.11308      -676.62408        42.87508  22498043.81208
 -10775903.06008      -527.23908        43.68808
  21728198.68808 -17858244.51808     -1372.23108        46.68808  21728199.68808
 -13680837.31908     -1069.27108        49.06208
  20250522.43808 -23720612.10208     -1244.00108        46.50008  20250522.71909
 -18248243.30709      -969.35209        53.50009
  23254556.40608  -9566189.71308     -2325.06108        44.56208  23254563.18808
  -7220040.53308     -1811.73608        46.87508
  22627567.56208 -13694681.61608      2941.25208        49.68808  22627570.15609
 -10437373.19509      2291.88509        52.00009
  23870385.62508  -5925785.57908     -3286.28208        43.81208  23870392.37508
  -4383550.78308     -2560.73908        47.37508
  24664053.84408  -2545608.68508      3806.27008        42.56208  24664065.00008
  -1742221.89308      2965.92408        44.50008
 25  1 27  0 17  0.0000000  0  9G10G15G16G18G23G26G27G29G32
  20788629.34409 -21793959.67209      1654.24809        54.06209  20788632.15609
 -16747312.53709      1289.02409        56.37509
  23461594.31208  -6613748.93708     -2035.64708        47.12508  23461597.71908
  -4916081.41408     -1586.21808        49.06208
  22501955.37508 -14109403.50808      -693.99908        42.75008  22501957.06208
 -10759881.87308      -540.77808        43.56208
  21736048.84408 -17816991.39608     -1377.77808        46.43808  21736050.03108
 -13648692.08908     -1073.59408        48.93808
  20257662.62508 -23683090.22408     -1257.31208        46.31208  20257662.90609
 -18219005.50609      -979.72409        53.31209
  23267853.18808  -9496316.82808     -2333.03008        44.75008  23267860.37508
  -7165594.33508     -1817.94508        47.56208
  22610799.25008 -13782796.56708      2933.18808        49.37508  22610802.59409
 -10506034.15509      2285.60109        52.12509
  23889168.06208  -5827091.96308     -3293.15208        45.06208  23889174.12508
  -4306647.01708     -2566.09208        48.25008
  24642322.03108  -2659813.11208      3807.47308        43.50008  24642333.12508
  -1831212.10608      2966.86208        45.93808
 25  1 27  0 17 30.0000000  0  9G10G15G16G18G23G26G27G29G32
  20779229.34409 -21843356.45009      1638.92309        54.06209  20779232.12509
 -16785803.50509      1277.08309        56.43809
  23473251.81208  -6552485.95408     -2048.42008        47.56208  23473255.43808
  -4868344.13208     -1596.17208        48.00008
  22505966.06208 -14088325.46108      -711.13808        42.62508  22505967.40608
 -10743457.47908      -554.13308        43.56208
  21743929.71908 -17775576.98208     -1383.27408        46.43808  21743930.78108
 -13616421.18808     -1077.87608        48.75008
  20264877.59408 -23645176.51308     -1270.18808        46.43808  20264877.75009
 -18189462.36709      -989.75709        53.31209
  23281192.75008  -9426218.13308     -2340.31508        44.50008  23281199.96908
  -7110972.17908     -1823.62208        47.43808
  22594076.96908 -13870673.33408      2925.23908        49.62508  22594080.12509
 -10574509.52009      2279.40709        52.12509
  23907987.21908  -5728197.98608     -3299.87508        45.25008  23907992.87508
  -4229587.12608     -2571.33208        47.93808
  24620581.50008  -2774057.39608      3808.80108        44.56208  24620591.84408
  -1920233.39908      2967.89708        43.87508
 25  1 27  0 18  0.0000000  0  9G10G15G16G18G23G26G27G29G32
  20769916.93809 -21892291.78209      1623.64309        54.00009  20769920.12509
 -16823934.90909      1265.17609        56.68809
  23484983.65608  -6490840.55808     -2060.99108        47.75008  23484986.12508
  -4820308.81808     -1605.96708        47.75008
  22510075.81208 -14066731.46608      -728.40108        42.56208  22510076.93808
 -10726631.04508      -567.58508        43.87508
  21751841.37508 -17734001.36808     -1388.46208        46.31208  21751842.68808
 -13584024.66408     -1081.91808        49.18808
  20272166.43808 -23606873.15308     -1283.03208        46.50008  20272166.62509
 -18159615.60609      -999.76509        53.43809
  23294574.62508  -9355896.78408     -2347.71708        43.93808  23294581.75008
  -7056176.56808     -1829.39008        47.25008
  22577400.56208 -13958309.49608      2917.34108        49.62508  22577403.84409
 -10642797.40209      2273.25309        52.50009
  23926843.90608  -5629105.06508     -3306.14508        43.81208  23926849.78108
  -4152372.18208     -2576.21708        46.87508
  24598834.00008  -2888339.07508      3810.20308        42.87508  24598844.06208
  -2009283.87908      2968.98908        42.81208
 25  1 27  0 18 30.0000000  0  9G10G15G16G18G23G26G27G29G32
  20760692.87509 -21940765.13009      1608.03509        53.87509  20760695.93809
 -16861706.33209      1253.01409        56.50009
  23496786.15608  -6428814.23208     -2073.93308        46.75008  23496789.15608
  -4771976.68908     -1616.05208        47.31208
  22514282.90608 -14044623.05608      -745.67908        42.87508  22514283.90608
 -10709403.77508      -581.04808        43.62508
  21759783.81208 -17692264.02308     -1393.98208        46.06208  21759784.90608
 -13551502.11008     -1086.22008        48.87508
  20279529.15608 -23568181.92308     -1296.30108        46.31208  20279529.37509
 -18129466.62309     -1010.10509        53.18809
  23307997.90608  -9285355.50808     -2355.04408        44.62508  23308004.75008
  -7001209.47808     -1835.09908        46.56208
  22560770.03108 -14045702.12308      2908.92608        49.25008  22560773.37509
 -10710895.51509      2266.69509        52.43809
  23945737.75008  -5529814.84508     -3313.01008        43.00008  23945744.03108
  -4075003.53308     -2581.56608        46.37508
  24577080.21908  -3002655.14208      3810.82508        42.18808  24577090.81208
  -2098361.16508      2969.47408        43.31208
 25  1 27  0 19  0.0000000  0  9G10G15G16G18G23G26G27G29G32
  20751556.78109 -21988776.54009      1592.69309        53.93809  20751559.65609
 -16899117.79909      1241.05909        56.62509
  23508662.56208  -6366409.11808     -2086.47508        47.18808  23508664.31208
  -4723349.42908     -1625.82408        47.50008
  22518587.59408 -14022001.58108      -762.55108        42.81208  22518588.93808
 -10691776.69608      -594.19608        43.75008
  21767756.75008 -17650365.19808     -1399.28008        46.12508  21767758.00008
 -13518853.71808     -1090.34808        48.87508
  20286965.18808 -23529105.21108     -1308.99908        46.43808  20286965.25009
 -18099017.25209     -1019.99909        53.37509
  23321462.68808  -9214597.69508     -2362.12908        43.81208  23321470.37508
  -6946073.71008     -1840.62008        47.56208
  22544186.43808 -14132848.96808      2900.70308        49.06208  22544189.81209
 -10778802.10109      2260.28809        52.87509
  23964671.03108  -5430329.24908     -3319.37308        44.93808  23964676.40608
  -3997482.64708     -2586.52408        47.18808
  24555321.18808  -3117003.01408      3812.17508        44.68808  24555331.09408
  -2187463.15808      2970.52608        44.68808
 25  1 27  0 19 30.0000000  0  9G10G15G16G18G23G26G27G29G32
  20742508.71909 -22036325.60809      1577.15809        54.25009  20742511.28109
 -16936169.01409      1228.95409        56.56209
  23520608.28108  -6303626.97808     -2099.05008        46.06208  23520611.56208
  -4674428.36108     -1635.62408        48.06208
  22522989.37508 -13998868.91908      -779.54808        42.93808  22522991.00008
 -10673751.29208      -607.44008        43.81208
  21775761.09408 -17608304.60608     -1404.84908        46.62508  21775761.93808
 -13486079.30208     -1094.68708        48.87508
  20294473.93808 -23489644.89808     -1321.79008        46.50008  20294474.50009
 -18068268.98809     -1029.96609        53.25009
  23334967.90608  -9143626.17008     -2369.40708        43.62508  23334976.37508
  -6890771.49008     -1846.29108        47.43808
  22527650.56208 -14219747.27308      2892.25808        49.50008  22527653.46909
 -10846515.03509      2253.70809        52.50009
  23983639.28108  -5330650.01008     -3325.87908        44.43808  23983645.56208
  -3919810.87208     -2591.59408        47.50008
  24533555.31208  -3231379.85808      3812.91008        44.50008  24533565.71908
  -2276587.78108      2971.09908        45.68808
 25  1 27  0 20  0.0000000  0  9G10G15G16G18G23G26G27G29G32
  20733548.21909 -22083412.09809      1561.89909        54.00009  20733551.03109
 -16972859.76509      1217.06409        56.75009
  23532626.93808  -6240469.55108     -2111.30408        44.93808  23532630.93808
  -4625214.90008     -1645.17208        48.75008
  22527488.62508 -13975226.62708      -796.39408        42.56208  22527490.00008
 -10655328.80108      -620.56708        44.00008
  21783795.71908 -17566082.02808     -1410.13408        46.25008  21783796.78108
 -13453178.64908     -1098.80608        49.06208
  20302055.84408 -23449803.03408     -1334.37508        46.31208  20302056.00009
 -18037223.40409     -1039.77309        53.18809
  23348514.71908  -9072443.94708     -2376.10608        44.43808  23348521.78108
  -6835305.03408     -1851.51108        47.25008
  22511161.96908 -14306394.36408      2883.99208        49.18808  22511165.12509
 -10914032.20109      2247.26609        52.75009
  24002643.12508  -5230778.42308     -3332.11908        42.68808  24002650.31208
  -3841989.22808     -2596.45708        47.12508
  24511784.21908  -3345782.98708      3813.76008        41.93808  24511794.62508
  -2365732.83808      2971.76108        44.43808
 25  1 27  0 20 30.0000000  0  9G10G15G16G18G23G26G27G29G32
  20724676.06209 -22130035.94609      1546.44309        54.18809  20724678.78109
 -17009190.01009      1205.02009        56.68809
  23544716.53108  -6176938.75008     -2123.80908        45.18808  23544719.81208
  -4575710.46708     -1654.91608        47.93808
  22532083.40608 -13951076.14008      -813.37608        42.18808  22532085.78108
 -10636510.28908      -633.80008        43.87508
  21791861.21908 -17523697.51008     -1415.36108        46.25008  21791862.25008
 -13420151.79608     -1102.87908        48.81208
  20309709.65608 -23409581.85408     -1346.92408        46.37508  20309709.93809
 -18005882.23509     -1049.55109        53.18809
  23362099.71908  -9001054.18508     -2383.01508        44.43808  23362107.06208
  -6779676.84608     -1856.89508        46.93808
  22494721.50008 -14392787.80608      2875.64508        49.12508  22494725.06209
 -10981351.70709      2240.76209        52.75009
  24021685.00008  -5130716.54408     -3338.60108        44.06208  24021692.28108
  -3764019.30708     -2601.50708        47.06208
  24490010.25008  -3460209.75708      3814.63908        43.75008  24490019.40608
  -2454896.35308      2972.44608        42.87508
 25  1 27  0 21  0.0000000  0  9G10G15G16G18G23G26G27G29G32
  20715891.75009 -22176196.95409      1530.95209        54.12509  20715894.68809
 -17045159.61209      1192.95009        56.50009
  23556876.68808  -6113036.41908     -2136.30608        45.68808  23556880.31208
  -4525916.53208     -1664.65408        48.25008
  22536775.84408 -13926419.05608      -830.36608        42.18808  22536778.00008
 -10617297.04308      -647.03908        43.56208
  21799957.68808 -17481150.83308     -1420.94008        46.31208  21799958.68808
 -13386998.62108     -1107.22608        48.62508
  20317435.09408 -23368983.40208     -1359.54608        46.18808  20317435.56209
 -17974247.11409     -1059.38609        53.00009
  23375723.87508  -8929459.93208     -2389.94408        44.31208  23375731.21908
  -6723889.32108     -1862.29408        46.81208
  22478330.59408 -14478924.95308      2866.89508        49.43808  22478333.78109
 -11048471.51709      2233.94409        52.81209
  24040762.43808  -5030466.01508     -3344.99808        43.93808  24040768.96908
  -3685902.37508     -2606.49208        46.50008
  24468231.53108  -3574657.23108      3815.34908        44.56208  24468240.62508
  -2544076.04008      2972.99908        43.75008
 25  1 27  0 21 30.0000000  0  9G10G15G16G18G23G26G27G29G32
  20707195.68809 -22221894.88809      1515.46409        54.06209  20707198.68809
 -17080768.36509      1180.88109        56.81209
  23569107.81208  -6048764.47508     -2148.66508        46.56208  23569111.15608
  -4475834.62408     -1674.28408        48.81208
  22541564.59408 -13901256.88208      -847.09708        42.37508  22541565.62508
 -10597690.21708      -660.07608        43.62508
  21808084.81208 -17438441.85708     -1426.32608        46.06208  21808086.21908
 -13353718.95508     -1111.42308        48.93808
  20325232.18808 -23328009.69708     -1372.10908        46.18808  20325232.59409
 -17942319.57709     -1069.17609        53.12509
  23389386.00008  -8857664.14508     -2396.68508        43.93808  23389393.59408
  -6667944.77008     -1867.54608        46.81208
  22461988.25008 -14564803.12108      2858.12008        49.50008  22461991.46909
 -11115389.52009      2227.10709        53.06209
  24059876.00008  -4930028.48508     -3351.01808        43.12508  24059881.93808
  -3607639.72508     -2611.18308        46.43808
  24446449.68808  -3689122.65808      3815.85208        44.87508  24446459.59408
  -2633269.68008      2973.39108        46.31208
 25  1 27  0 22  0.0000000  0  9G10G15G16G18G23G26G27G29G32
  20698587.75009 -22267129.59109      1499.97809        54.00009  20698590.75009
 -17116016.16509      1168.81409        56.81209
  23581408.25008  -5984124.44408     -2160.79608        46.37508  23581410.43808
  -4425465.84608     -1683.73708        46.93808
  22546448.40608 -13875591.57908      -863.73008        42.43808  22546449.81208
 -10577691.34608      -673.03708        43.56208
  21816243.21908 -17395570.38308     -1431.91208        46.06208  21816244.06208
 -13320312.67808     -1115.77508        48.75008
  20333100.34408 -23286662.84508     -1384.32608        46.25008  20333100.78109
 -17910101.27909     -1078.69609        53.06209
  23403086.50008  -8785669.84908     -2403.12008        43.75008  23403093.62508
  -6611845.52808     -1872.56108        46.62508
  22445695.87508 -14650419.75008      2849.50408        49.75008  22445699.37509
 -11182103.72409      2220.39309        53.31209
  24079024.06208  -4829405.76808     -3357.21708        43.43808  24079030.62508
  -3529232.79508     -2616.01308        46.68808
  24424662.53108  -3803603.28208      3816.26508        41.93808  24424674.46908
  -2722475.12008      2973.71308        46.06208
 25  1 27  0 22 30.0000000  0  9G10G15G16G18G23G26G27G29G32
  20690068.15609 -22311900.93209      1484.77509        54.31209  20690070.93809
 -17150902.91109      1156.96809        56.75009
  23593779.28108  -5919118.68808     -2172.90508        47.18808  23593781.59408
  -4374812.08908     -1693.17308        47.68808
  22551427.59408 -13849424.66208      -880.37608        42.18808  22551429.53108
 -10557301.61808      -686.00708        43.68808
  21824432.31208 -17352536.25908     -1437.22408        46.18808  21824433.21908
 -13286779.65108     -1119.91508        48.37508
  20341039.21908 -23244944.91808     -1396.74608        46.50008  20341039.43809
 -17877593.84609     -1088.37309        52.93809
  23416823.25008  -8713480.06208     -2409.49008        43.31208  23416831.43808
  -6555593.99908     -1877.52508        46.81208
  22429454.00008 -14735772.13608      2840.64908        49.93808  22429457.28109
 -11248612.03709      2213.49309        53.12509
  24098207.00008  -4728599.66008     -3363.28408        43.68808  24098214.25008
  -3450682.97008     -2620.74008        47.37508
  24402875.93808  -3918096.25508      3816.63608        43.50008  24402886.06208
  -2811690.21208      2974.00208        44.31208
 25  1 27  0 23  0.0000000  0  9G10G15G16G18G23G26G27G29G32
  20681636.96909 -22356208.73609      1469.25509        54.31209  20681639.46909
 -17185428.44409      1144.87409        56.81209
  23606218.43808  -5853748.81708     -2185.00708        46.81208  23606221.34408
  -4323874.61408     -1702.60308        48.68808
  22556502.59408 -13822757.72908      -897.17008        42.37508  22556504.50008
 -10536522.26608      -699.09408        44.00008
  21832652.56208 -17309339.23308     -1442.61708        46.12508  21832653.40608
 -13253119.69808     -1124.11708        48.56208
  20349048.03108 -23202857.95708     -1408.94008        46.50008  20349048.25009
 -17844798.83509     -1097.87609        52.93809
  23430598.18808  -8641097.78408     -2415.95908        44.37508  23430605.65608
  -6499192.45808     -1882.56608        47.00008
  22413262.96909 -14820857.64709      2831.66509        50.12509  22413265.96909
 -11314912.38909      2206.49209        53.18809
  24117424.50008  -4627611.85008     -3369.35108        43.43808  24117431.34408
  -3371991.51808     -2625.46808        47.00008
  24381087.75008  -4032598.67108      3816.82608        45.00008  24381096.40608
  -2900912.69808      2974.15008        43.62508
 25  1 27  0 23 30.0000000  0  9G10G15G16G18G23G26G27G29G32
  20673293.59409 -22400053.00409      1453.67709        54.18809  20673296.03109
 -17219592.78909      1132.73509        56.62509
  23618727.15608  -5788017.01508     -2197.11708        46.75008  23618730.31208
  -4272655.08608     -1712.03908        48.75008
  22561671.84408 -13795592.38908      -913.71308        42.37508  22561673.59408
 -10515354.52908      -711.98408        43.68808
  21840903.78108 -17265979.29708     -1448.19308        45.93808  21840904.78108
 -13219332.79808     -1128.46208        48.43808
  20357127.06208 -23160404.19108     -1421.27008        46.43808  20357127.00009
 -17811718.01809     -1107.48309        52.75009
  23444408.50008  -8568526.19308     -2422.14608        44.43808  23444415.68808
  -6442643.40208     -1887.38608        46.93808
  22397122.56208 -14905673.78108      2822.67808        49.87508  22397125.84409
 -11381002.83309      2199.49009        53.12509
