     2.11           OBSERVATION DATA    G (GPS)             RINEX VERSION / TYPE
RinEdit             Dataflow Processing 20250308 080002 UTC PGM / RUN BY / DATE
ADE3                                                        MARKER NAME
50109S001                                                   MARKER NUMBER
Monitor Station     NGA                                     OBSERVER / AGENCY
NR035               NOV OEM6            D28CBA70            REC # / TYPE / VERS
762-11400           TPSCR.G5        TPSH                    ANT # / TYPE
 -3939218.6120  3467085.8240 -3613160.7130                  APPROX POSITION XYZ
        0.0000        0.0000        0.0000                  ANTENNA: DELTA H/E/N
     8    P1    L1    D1    S1    P2    L2    D2    S2      # / TYPES OF OBSERV
     1     1                                                WAVELENGTH FACT L1/2
  2025     3     7     0     0    0.0000000     GPS         TIME OF FIRST OBS
                                                            END OF HEADER
 25  3  7  0  0  0.0000000  0  9G01G02G08G10G18G23G27G28G32
  24895712.65607    249861.18407      3155.15907        35.81207  24895713.84407
    429063.68307      2458.56507        38.37507
  23385904.96908  -7306253.37108      3506.13008        41.06208  23385904.34408
  -5453632.23008      2732.05008        42.93808
  21513784.59409 -17678327.28709       399.37709        50.68809  21513787.75009
 -13540743.89909       311.20309        53.75009
  21219080.21909 -19575646.51309     -1625.50309        53.68809  21219082.75009
 -15019419.35809     -1266.62609        55.25009
  25256925.00007   1320841.09507     -3007.37807        33.37507  25256934.12508
   1264066.81908     -2343.41108        40.18808
  23973404.09407  -3979473.52507     -2592.33407        39.12507  23973409.87508
  -2860502.37508     -2020.00008        44.00008
  21278400.21909 -21006543.94109     -1767.88109        52.43809  21278403.06209
 -16134946.04909     -1377.56909        55.12509
  24468373.15607  -3374180.34107      3072.32907        38.25007  24468379.25007
  -2395142.29407      2394.02307        39.31207
  20222943.96909 -25896371.62509       490.17609        54.87509  20222945.84409
 -19944364.91709       381.95509        58.37509
 25  3  7  0  0 30.0000000  0 10G01G02G08G10G18G23G24G27G28G32
  24877694.75007    155184.97707      3156.69907        35.25007  24877697.96907
    355289.96807      2459.76607        38.68807
  23365895.28107  -7411399.70807      3503.44007        40.00007  23365895.84408
  -5535564.39608      2729.95308        43.37508
  21511561.56209 -17690007.88109       379.43809        50.50009  21511564.93809
 -13549845.69709       295.66609        53.81209
  21228376.03109 -19526797.09009     -1631.09109        53.81209  21228378.53109
 -14981354.92509     -1270.98009        55.31209
  25274108.50007   1411138.69607     -3012.22207        33.81207  25274117.62508
   1334428.11108     -2347.18608        41.06208
  23988203.21907  -3901708.45407     -2591.83807        38.43807  23988207.81208
  -2799906.40408     -2019.61408        42.87508
  25623287.21906     23098.03106     -1363.78706        25.81206          .00000
          .00000          .00000          .00000
  21288541.71909 -20953249.33709     -1784.98009        52.18809  21288544.65609
 -16093417.85809     -1390.89409        55.12509
  24450831.93807  -3466359.28507      3073.10107        37.62507  24450838.15608
  -2466969.80208      2394.62408        40.25008
  20220203.25009 -25910774.40009       470.02009        54.93809  20220205.18809
 -19955587.86609       366.24909        58.56209
 25  3  7  0  1  0.0000000  0 10G01G02G08G10G18G23G24G27G28G32
  24859669.43807     60459.51307      3157.97107        35.00007  24859671.75007
    281477.90207      2460.75707        38.56207
  23345901.09408  -7516468.94308      3500.81508        40.18808  23345901.03108
  -5617436.52408      2727.90808        42.50008
  21509452.75009 -17701090.88809       359.29709        50.25009  21509456.03109
 -13558481.85309       279.97209        53.68809
  21237702.81209 -19477784.61509     -1636.62109        53.43809  21237705.34409
 -14943163.43109     -1275.28909        55.18809
  25291317.46907   1501571.50607     -3016.85307        36.68807  25291327.53107
   1404894.82007     -2350.79507        39.50007
  24002997.15607  -3823958.62907     -2591.60407        36.50007  24003002.59408
  -2739322.33708     -2019.43208        41.62508
  25631114.68807     64224.40607     -1377.31907        30.18807  25631120.06207
     42537.44307     -1073.23607        37.75007
  21298779.00009 -20899451.82109     -1801.74609        51.93809  21298782.00009
 -16051497.78509     -1403.95809        54.81209
  24433286.71907  -3558559.60607      3073.65707        37.75007  24433292.71907
  -2538813.97507      2395.05807        39.93807
  20217577.46909 -25924571.93209       449.74609        54.68809  20217579.56209
 -19966339.19909       350.45209        58.43809
 25  3  7  0  1 30.0000000  0 10G01G02G08G10G18G23G24G27G28G32
  24841634.78107    -34314.34507      3159.80707        36.50007  24841637.78107
    207628.16507      2462.18707        39.43807
  23325923.68808  -7621458.92108      3498.44508        40.93808  23325922.56208
  -5699246.86208      2726.06108        43.37508
  21507457.43809 -17711576.41109       339.56809        50.37509  21507460.90609
 -13566652.41509       264.59809        53.75009
  21247060.03109 -19428610.36509     -1641.82109        53.00009  21247062.84409
 -14904845.87109     -1279.34109        55.37509
  25308551.93807   1592138.52407     -3021.15007        37.18807  25308561.09407
   1475466.22807     -2354.14307        37.00007
  24017790.46907  -3746224.52507     -2591.05507        37.31207  24017794.87508
  -2678750.49308     -2019.00408        41.00008
  25639014.40606    105745.96706     -1389.94406        28.50006  25639019.78107
     74891.94807     -1083.07307        33.81207
  21309111.84409 -20845153.80209     -1818.25209        52.12509  21309114.75009
 -16009187.69109     -1416.82009        54.93809
  24415737.65607  -3650778.68807      3074.20207        38.00007  24415743.71908
  -2610672.73808      2395.48208        40.87508
  20215067.00009 -25937764.56409       429.64809        54.81209  20215069.03109
 -19976619.16209       334.79109        58.43809
 25  3  7  0  2  0.0000000  0 10G01G02G08G10G18G23G24G27G28G32
  24823591.18807   -129135.33607      3161.37007        36.93807  24823593.37507
    133741.63407      2463.40507        38.43807
  23305958.68808  -7726367.57808      3495.50508        40.56208  23305959.43808
  -5780993.85208      2723.77108        43.56208
  21505575.93809 -17721464.22909       319.56109        50.37509  21505579.15609
 -13574357.24409       249.00809        53.68809
  21256448.18809 -19379275.28309     -1647.14109        53.25009  21256450.90609
 -14866403.00109     -1283.48709        55.25009
  25325812.03107   1682839.00707     -3025.31707        35.25007  25325820.46907
   1546141.62507     -2357.39007        36.12507
  24032580.78107  -3668506.38707     -2590.42207        39.37507  24032584.62508
  -2618191.10908     -2018.51108        41.25008
  25646989.34406    147661.82906     -1403.43506        24.87506  25646998.34407
    107553.56407     -1093.58607        34.62507
  21319539.37509 -20790357.44309     -1834.82409        52.18809  21319542.25009
 -15966489.29809     -1429.73309        55.00009
  24398185.59407  -3743013.65507      3074.35507        38.43807  24398190.90608
  -2682543.86308      2395.60208        40.50008
  20212671.71909 -25950352.41009       409.53109        54.87509  20212673.68809
 -19986427.87109       319.11509        58.50009
 25  3  7  0  2 30.0000000  0 10G01G02G08G10G18G23G24G27G28G32
  24805538.59407   -224002.29307      3163.13207        36.93807  24805540.46907
     59819.32607      2464.77807        38.12507
  23286011.46908  -7831192.35208      3492.62508        40.75008  23286011.75008
  -5862675.47608      2721.52608        43.31208
  21503808.15609 -17730754.09409       299.65809        50.31209  21503811.37509
 -13581596.13009       233.50009        53.62509
  21265867.18809 -19329780.21909     -1652.45609        53.43809  21265869.84409
 -14827835.46509     -1287.62809        55.00009
  25343098.12507   1773672.26607     -3030.03207        34.93807  25343107.43807
   1616920.34307     -2361.06407        37.68807
  24047366.28107  -3590804.28307     -2589.98007        38.93807  24047371.53108
  -2557644.16608     -2018.16708        41.43808
  25655041.31206    189971.28606     -1416.68006        25.62506  25655050.25007
    140521.85707     -1103.90607        35.68807
  21330061.25009 -20735064.78709     -1851.41609        52.06209  21330063.87509
 -15923404.18709     -1442.66209        54.62509
  24380630.87507  -3835261.39607      3074.80007        37.50007  24380637.43808
  -2754424.95808      2395.94808        40.81208
  20210391.53109 -25962335.46309       389.36809        54.75009  20210393.28109
 -19995765.31809       303.40309        58.43809
 25  3  7  0  3  0.0000000  0 10G01G02G08G10G18G23G24G27G28G32
  24787477.62507   -318914.21507      3164.53607        37.25007  24787479.78107
    -14138.03707      2465.87207        38.37507
  23266080.59408  -7935931.29708      3489.92408        40.81208  23266080.18808
  -5944290.20608      2719.42208        43.31208
  21502154.25009 -17739446.08009       279.87809        50.56209  21502157.15609
 -13588369.14709       218.08709        53.56209
  21275315.93809 -19280126.31909     -1657.71509        53.68809  21275318.65609
 -14789144.16009     -1291.72609        55.12509
  25360408.53107   1864637.14407     -3034.29007        35.68807  25360417.68807
   1687801.74607     -2364.38107        38.68807
  24062150.46907  -3513118.64307     -2589.00907        39.12507  24062154.78108
  -2497110.08708     -2017.40908        42.56208
  25663168.43807    232672.82607     -1429.65607        30.81207  25663175.12507
    173795.70907     -1114.01707        33.50007
  21340676.96909 -20679278.29009     -1867.63209        52.06209  21340679.84409
 -15879934.25009     -1455.29709        54.68809
  24363075.06207  -3927519.32207      3075.13207        37.62507  24363080.59408
  -2826313.92908      2396.20708        40.56208
  20208226.18809 -25973714.13309       369.35509        54.87509  20208228.12509
 -20004631.80909       287.80909        58.50009
 25  3  7  0  3 30.0000000  0 10G01G02G08G10G18G23G24G27G28G32
  24769407.71907   -413869.94207      3165.95907        36.93807  24769410.84407
    -88129.57307      2466.98107        39.06207
  23246166.34408  -8040582.09108      3486.87008        41.18808  23246165.71908
  -6025836.25308      2717.04208        43.31208
  21500614.28109 -17747540.11209       259.97309        50.68809  21500617.34409
 -13594676.21709       202.57609        53.81209
  21284795.09409 -19230314.56509     -1662.90809        53.81209  21284797.46909
 -14750329.85409     -1295.77209        55.31209
  25377742.12507   1955732.81907     -3038.44707        33.31207  25377753.09407
   1758784.97907     -2367.62107        39.56207
  24076929.59407  -3435449.64807     -2588.43807        38.06207  24076935.53108
  -2436589.00608     -2016.96408        43.06208
  25671368.06207    275765.70407     -1442.91007        32.68807  25671375.12507
    207374.52807     -1124.34607        31.50007
  21351386.31209 -20623000.16809     -1883.89409        51.93809  21351389.37509
 -15836081.22909     -1467.96909        54.93809
  24345516.93807  -4019784.43107      3075.46907        37.81207  24345523.15608
  -2898208.57108      2396.46908        40.37508
  20206175.84409 -25984488.61009       349.31609        54.81209  20206177.65609
 -20013027.50409       272.19509        58.56209
 25  3  7  0  4  0.0000000  0 10G01G02G08G10G18G23G24G27G28G32
  24751330.75007   -508868.46207      3167.21907        37.00007  24751333.62508
   -162154.42808      2467.96308        40.31208
  23226268.75008  -8145142.32208      3483.73008        41.25008  23226268.34408
  -6107311.68808      2714.59508        43.93808
  21499187.50009 -17755036.21809       239.93909        50.68809  21499190.68809
 -13600517.36809       186.96509        53.93809
  21294303.84409 -19180346.00309     -1668.29309        53.75009  21294306.21909
 -14711393.35309     -1299.96909        55.43809
  25395103.12507   2046958.47007     -3043.21807        36.25007  25395113.68808
   1829869.42408     -2371.33908        40.81208
  24091706.15607  -3357797.61007     -2588.16407        37.25007  24091710.78108
  -2376081.13908     -2016.75108        40.93808
  25679643.59407    319248.76107     -1455.94707        34.25007  25679651.84406
    241257.39306     -1134.50406        29.12506
  21362189.12509 -20566232.81909     -1900.33409        52.18809  21362191.96909
 -15791847.00309     -1480.78009        55.12509
  24327958.31207  -4112053.92207      3075.76907        38.43807  24327964.46908
  -2970106.61208      2396.70308        40.31208
  20204240.34409 -25994659.21909       328.89409        54.87509  20204242.28109
 -20020952.65009       256.28109        58.75009
 25  3  7  0  4 30.0000000  0 10G01G02G08G10G18G23G24G27G28G32
  24733244.84407   -603908.37107      3168.67407        37.25007  24733247.43807
   -236211.50207      2469.09707        40.00007
  23206389.62508  -8249609.90408      3480.58808        41.62508  23206389.40608
  -6188714.97408      2712.14708        43.43808
  21497874.93809 -17761934.21109       219.94909        50.62509  21497878.15609
 -13605892.46209       171.38909        53.56209
  21303842.15609 -19130221.39009     -1673.44509        53.56209  21303844.59409
 -14672335.25709     -1303.98309        55.00009
  25412487.68807   2138313.18507     -3047.15107        35.56207  25412498.21908
   1901054.52208     -2374.40308        40.06208
  24106480.78107  -3280162.52607     -2587.88307        38.06207  24106485.93808
  -2315586.50108     -2016.53208        41.50008
  25687990.53107    363121.20307     -1468.79907        33.06207          .00000
          .00000          .00000          .00000
  21373084.31209 -20508978.29809     -1916.59409        52.12509  21373087.18809
 -15747233.15609     -1493.45009        54.75009
  24310398.71907  -4204324.64607      3075.45407        37.31207  24310406.25008
  -3042005.65808      2396.45808        40.68808
  20202419.93809 -26004226.04009       308.80109        54.81209  20202421.75009
 -20028407.30509       240.62409        58.37509
 25  3  7  0  5  0.0000000  0 10G01G02G08G10G18G23G24G27G28G32
  24715152.12507   -698988.68507      3170.15607        37.68807  24715154.56207
   -310300.07107      2470.25207        40.00007
  23186527.78108  -8353982.47208      3477.44108        40.81208  23186528.25008
  -6270044.21208      2709.69508        44.06208
  21496675.96909 -17768234.31309       200.13709        50.56209  21496679.25009
 -13610801.66709       155.95109        53.68809
  21313410.09409 -19079941.88709     -1678.44509        53.56209  21313412.62509
 -14633156.46509     -1307.87909        55.31209
  25429895.81207   2229796.08507     -3051.33507        34.12507  25429906.28107
   1972339.48407     -2377.66407        37.68807
  24121250.84407  -3202544.86707     -2586.72407        38.81207  24121255.87508
  -2255105.36708     -2015.62908        41.37508
  25696413.59407    407381.74307     -1482.26607        34.00007          .00000
          .00000          .00000          .00000
  21384071.68809 -20451239.16809     -1932.48009        52.06209  21384074.68809
 -15702241.69209     -1505.82909        54.93809
  24292840.87507  -4296593.97507      3075.52707        37.50007  24292847.00008
  -3113903.55608      2396.51508        41.06208
  20200714.28109 -26013189.57409       288.88209        54.81209  20200716.03109
 -20035391.88009       225.10309        58.56209
 25  3  7  0  5 30.0000000  0 10G01G02G08G10G18G23G24G27G28G32
  24697051.21907   -794107.96807      3171.61407        37.56207  24697053.09407
   -384419.04607      2471.38707        39.62507
  23166685.34408  -8458257.19208      3474.37708        41.56208  23166685.06208
  -6351297.18908      2707.30708        43.87508
  21495590.84409 -17773936.26409       180.17309        50.31209  21495594.34409
 -13615244.79309       140.39509        53.68809
  21323006.93809 -19029508.13809     -1683.48909        52.87509  21323010.03109
 -14593857.49409     -1311.80909        55.25009
  25447328.78107   2321406.54307     -3055.77607        34.00007  25447339.65607
   2043723.88207     -2381.12507        37.25007
  24136017.31207  -3124944.50407     -2586.39407        38.00007  24136021.28107
  -2194637.71707     -2015.37207        39.87507
  25704909.00007    452029.71907     -1495.21207        31.25007          .00000
          .00000          .00000          .00000
  21395150.96909 -20393017.43409     -1948.66509        51.81209  21395153.90609
 -15656874.17809     -1518.44009        54.87509
  24275283.50007  -4388858.66307      3075.54007        37.18807  24275289.93808
  -3185797.87208      2396.52408        41.68808
  20199123.50009 -26021549.85309       268.79609        54.62509  20199125.18809
 -20041906.38309       209.45209        58.50009
 25  3  7  0  6  0.0000000  0 10G01G02G08G10G18G23G24G27G28G32
  24678942.90607   -889265.23407      3172.47807        36.87507  24678945.28107
   -458567.56207      2472.06107        39.56207
  23146861.62508  -8562432.63208      3470.69108        42.00008  23146860.78108
  -6432472.86108      2704.43508        44.00008
  21494619.78109 -17779040.40509       160.07109        50.50009  21494623.12509
 -13619222.09109       124.73009        53.87509
  21332633.40609 -18978921.34909     -1688.89609        53.00009  21332636.25009
 -14554439.27109     -1316.02309        55.37509
  25464787.43807   2413143.41007     -3060.05607        35.68807  25464797.68807
   2115206.75307     -2384.45907        38.06207
  24150781.78107  -3047361.92007     -2585.79607        38.18807  24150786.25008
  -2134183.95108     -2014.90608        40.75008
  25713479.62506    497063.68706     -1507.54906        29.62506  25713487.09407
     17630.07807     -1174.71307        31.56207
  21406321.62509 -20334315.73709     -1964.83409        51.93809  21406324.62509
 -15611132.66909     -1531.03909        55.00009
  24257727.18807  -4481115.93407      3075.02007        37.37507  24257733.96908
  -3257686.41808      2396.11908        41.31208
  20197647.15609 -26029307.46609       248.43309        54.75009  20197648.96909
 -20047951.28209       193.58409        58.68809
 25  3  7  0  6 30.0000000  0 10G01G02G08G10G18G23G24G27G28G32
  24660828.62507   -984459.30807      3173.82807        37.75007  24660831.40608
   -532744.81908      2473.11308        40.12508
  23127056.18808  -8666506.23208      3467.27308        41.12508  23127056.25008
  -6513569.14408      2701.77108        43.31208
  21493762.34409 -17783546.81709       140.23409        50.62509  21493765.56209
 -13622733.61409       109.27409        53.75009
  21342288.65609 -18928182.44809     -1693.91109        53.25009  21342291.75009
 -14514902.52109     -1319.93109        55.25009
  25482267.68807   2505005.71707     -3064.00607        34.31207  25482277.93807
   2186787.35607     -2387.53707        37.75007
  24165541.87507  -2969797.17607     -2585.08807        38.43807  24165547.53108
  -2073744.13108     -2014.35408        41.93808
  25722123.34407    542482.60707     -1520.69807        32.12507  25722128.87507
     53021.39807     -1184.96007        32.31207
  21417583.15609 -20275136.44809     -1980.52009        52.12509  21417586.15609
 -15565019.00609     -1543.26209        54.81209
  24240174.21907  -4573362.94007      3074.74907        38.81207  24240178.90608
  -3329566.97608      2395.90808        40.81208
  20196285.56209 -26036462.80009       228.44009        54.93809  20196287.43809
 -20053526.86409       178.00509        58.62509
 25  3  7  0  7  0.0000000  0 10G01G02G08G10G18G23G24G27G28G32
  24642707.18807  -1079688.73307      3175.03407        37.56207  24642709.15607
   -606949.57607      2474.05207        39.37507
  23107271.75008  -8770475.13608      3463.76708        41.50008  23107272.03108
  -6594583.85608      2699.03908        43.43808
  21493018.34409 -17787455.35009       120.38109        50.50009  21493021.78109
 -13625779.25909        93.80309        53.68809
  21351973.06209 -18877292.10109     -1698.84009        53.37509  21351975.90609
 -14475247.75809     -1323.77209        55.37509
  25499773.03107   2596992.89907     -3067.99607        34.87507  25499782.03107
   2258465.27007     -2390.64607        37.93807
  24180298.34407  -2892250.34407     -2584.64407        37.62507  24180303.21908
  -2013318.21808     -2014.00808        41.12508
  25730838.96907    588285.60207     -1533.32507        32.87507  25730844.84407
     88712.07707     -1194.79907        31.81207
  21428935.15609 -20215481.64109     -1996.43609        52.00009  21428938.00009
 -15518534.82209     -1555.66409        54.62509
  24222622.09407  -4665596.41407      3074.23307        38.37507  24222627.28108
  -3401437.02808      2395.50708        40.18808
  20195038.50009 -26043015.96709       208.39809        54.87509  20195040.43809
 -20058633.22309       162.38809        58.68809
 25  3  7  0  7 30.0000000  0 10G01G02G08G10G18G23G24G27G28G32
  24624579.28107  -1174952.56707      3176.22807        38.00007  24624581.71907
   -681181.18307      2474.98307        39.75007
  23087507.68808  -8874337.52808      3460.23908        41.68808  23087507.62508
  -6675515.57308      2696.29008        44.06208
  21492388.53109 -17790766.45209       100.49809        50.62509  21492391.40609
 -13628359.36109        78.31009        53.75009
  21361685.90609 -18826251.54309     -1703.75509        53.37509  21361688.62509
 -14435475.95509     -1327.60109        55.37509
  25517299.40607   2689103.81807     -3072.18507        32.31207  25517311.68807
   2330239.57007     -2393.91007        38.68807
  24195051.09407  -2814721.88907     -2583.69907        37.93807  24195056.34408
  -1952906.61708     -2013.27208        40.93808
  25739629.12506    634471.23906     -1545.56406        29.31206  25739633.53107
    124700.89607     -1204.33607        33.56207
  21440376.96909 -20155354.08009     -2012.07509        51.87509  21440379.96909
 -15471682.25909     -1567.85109        54.81209
  24205072.40607  -4757813.78607      3073.56007        36.93807  24205078.84408
  -3473294.49608      2394.98108        41.06208
  20193906.03109 -26048967.72009       188.47409        54.87509  20193907.71909
 -20063270.95509       146.86309        58.81209
 25  3  7  0  8  0.0000000  0 10G01G02G08G10G18G23G24G27G28G32
  24606445.00007  -1270249.38907      3177.23407        37.75007  24606447.31207
   -755438.46207      2475.76707        39.68807
  23067764.53108  -8978090.91508      3456.63608        42.12508  23067764.25008
  -6756362.32108      2693.48208        44.18808
  21491872.21909 -17793480.15809        80.51809        50.75009  21491875.71909
 -13630473.96609        62.74109        53.81209
  21371427.03109 -18775061.45509     -1708.83809        53.31209  21371429.84409
 -14395587.62409     -1331.56209        55.18809
  25534852.09407   2781337.64307     -3075.91607        31.75007  25534862.40607
   2402109.68407     -2396.81707        34.56207
  24209802.12507  -2737211.69607     -2583.41607        38.81207  24209806.59408
  -1892509.28508     -2013.05108        40.68808
  25748487.78106    681038.77606     -1558.99406        24.50006  25748494.00007
    160987.28507     -1214.80107        32.00007
  21451908.50009 -20094755.97009     -2027.71709        51.81209  21451911.71909
 -15424463.02409     -1580.03909        54.62509
  24187527.46907  -4850011.86907      3072.93907        37.87507  24187533.12508
  -3545136.93008      2394.49808        41.06208
  20192888.00009 -26054318.34409       168.38109        54.93809  20192889.81209
 -20067440.26709       131.20609        58.81209
 25  3  7  0  8 30.0000000  0 10G01G02G08G10G18G23G24G27G28G32
  24588304.31207  -1365578.07007      3178.27107        37.68807  24588306.15607
   -829720.57707      2476.57507        39.56207
  23048041.71908  -9081732.86308      3452.66108        41.75008  23048040.96908
  -6837122.23608      2690.38508        43.62508
  21491469.53109 -17795596.79809        60.67609        50.68809  21491472.40609
 -13632123.32909        47.28009        53.56209
  21381196.31209 -18723722.86009     -1713.75209        53.25009  21381199.31209
 -14355583.58009     -1335.39109        55.18809
  25552427.59407   2873693.34007     -3080.83007        31.62507  25552434.71907
   2474074.72407     -2400.64707        32.37507
  24224546.93807  -2659720.12407     -2582.79807        36.93807  24224552.21908
  -1832126.40508     -2012.57008        40.18808
  25757425.50006    727986.70806     -1571.12106        27.00006  25757430.03107
    197570.10007     -1224.25007        33.68807
  21463529.00009 -20033689.88209     -2043.27109        51.62509  21463532.28109
 -15376879.13909     -1592.16009        54.62509
  24169987.43807  -4942187.80007      3072.15807        38.43807  24169992.81208
  -3616962.11708      2393.88908        41.87508
  20191983.87509 -26059068.41309       148.41109        54.75009  20191985.59409
 -20071141.62109       115.64509        58.56209
 25  3  7  0  9  0.0000000  0 10G01G02G08G10G18G23G24G27G28G32
  24570158.06207  -1460937.33507      3179.03607        37.62507  24570160.43807
   -904026.48407      2477.17107        39.87507
  23028340.43808  -9185260.98708      3448.73308        41.06208  23028339.81208
  -6917793.48208      2687.32408        43.06208
  21491180.21909 -17797116.50009        40.67409        50.56209  21491183.56209
 -13633307.55209        31.69409        53.56209
  21390994.03109 -18672236.62909     -1718.71809        53.43809  21390996.96909
 -14315464.50309     -1339.26109        55.25009
  25570026.68807   2966169.79707     -3084.94407        34.00007  25570035.62507
   2546133.95207     -2403.85207        37.31207
  24239290.81207  -2582247.26207     -2582.16107        38.00007  24239295.71908
  -1771758.11708     -2012.07308        40.62508
  25766431.12506    775314.18506     -1583.42006        28.75006  25766436.37507
    234448.57207     -1233.83407        35.75007
  21475237.96909 -19972158.19409     -2058.83809        51.43809  21475241.31209
 -15328932.46309     -1604.28909        54.37509
  24152451.90607  -5034338.55307      3071.26207        38.50007  24152456.87508
  -3688767.70608      2393.19108        41.31208
  20191194.18809 -26063218.33409       128.34209        54.75009  20191196.09409
 -20074375.33109       100.00709        58.56209
 25  3  7  0  9 30.0000000  0 10G01G02G08G10G18G23G24G27G28G32
  24552006.68807  -1556325.84107      3180.10707        38.43807  24552008.71908
   -978355.18808      2478.00608        40.37508
  23008662.03108  -9288672.91408      3444.99308        42.00008  23008662.03108
  -6998374.16308      2684.41008        43.75008
  21491004.81209 -17798039.46909        20.73509        50.81209  21491007.87509
 -13634026.77609        16.15709        53.81209
  21400819.56209 -18620603.56109     -1723.53009        53.68809  21400822.43809
 -14275230.99209     -1343.01109        55.37509
  25587646.53107   3058766.42807     -3089.02307        31.00007  25587657.96908
   2618286.73708     -2407.03108        40.12508
  24254029.90607  -2504793.12807     -2581.52607        38.06207  24254034.43808
  -1711404.45108     -2011.57908        40.93808
  25775509.50006    823019.90306     -1597.00006        28.43806  25775514.25007
    271621.83007     -1244.41507        35.18807
  21487035.37509 -19910163.31109     -2074.19909        51.56209  21487038.65609
 -15280624.82709     -1616.25909        54.56209
  24134921.62507  -5126461.09407      3070.30807        38.31207  24134926.53108
  -3760551.28308      2392.44808        41.18808
  20190518.59409 -26066768.61409       108.40809        54.87509  20190520.21909
 -20077141.77409        84.47409        58.68809
 25  3  7  0 10  0.0000000  0 10G01G02G08G10G18G23G24G27G28G32
  24533849.75007  -1651742.20907      3180.80607        38.50007  24533850.93808
  -1052705.62808      2478.55008        40.25008
  22989006.46908  -9391966.03008      3441.20808        42.18808  22989006.31208
  -7078862.28408      2681.46108        44.00008
  21490942.81209 -17798365.93609         1.00109        50.62509  21490945.96909
 -13634281.19409          .78009        53.75009
  21410673.28109 -18568824.48109     -1728.42509        53.50009  21410675.71909
 -14234883.71209     -1346.82509        55.25009
  25605290.65607   3151482.40807     -3093.18107        31.31207  25605301.96907
   2690532.42507     -2410.27107        38.62507
  24268765.21907  -2427357.88007     -2580.84507        37.43807  24268771.03108
  -1651065.49008     -2011.04808        41.50008
  25784654.40606    871102.80706     -1609.28706        25.93806  25784665.43807
    309089.00007     -1253.99007        36.12507
  21498920.37509 -19847707.66009     -2089.54609        51.37509  21498923.65609
 -15231958.16309     -1628.21809        54.37509
  24117396.31207  -5218552.38307      3068.97507        37.75007  24117401.53108
  -3832310.56308      2391.40908        40.75008
  20189956.96909 -26069719.70309        88.42509        54.68809  20189959.06209
 -20079441.33209        68.90309        58.75009
 25  3  7  0 10 30.0000000  0 10G01G02G08G10G18G23G24G27G28G32
  24515686.84407  -1747185.57107      3182.07507        38.06207  24515689.15608
  -1127077.06308      2479.53908        40.56208
  22969372.81208  -9495138.52108      3436.97808        41.81208  22969373.15608
  -7159256.39508      2678.16408        44.56208
  21490993.84409 -17798096.59609       -18.82309        50.31209  21490997.06209
 -13634071.35509       -14.66709        53.68809
  21420553.59409 -18516900.60409     -1733.24709        53.25009  21420556.65609
 -14194423.60409     -1350.58209        55.18809
  25622956.62507   3244316.22207     -3096.23507        32.62507  25622966.34407
   2762870.07507     -2412.65107        33.31207
  24283497.03107  -2349941.97207     -2580.32707        37.62507  24283503.06208
  -1590741.59708     -2010.64508        41.25008
  25793877.81206    919561.37706     -1621.48706        28.18806  25793887.09407
    346848.93207     -1263.49607        36.81207
  21510892.31209 -19784794.09709     -2104.73609        51.06209  21510895.81209
 -15182934.67509     -1640.05409        54.25009
  24099879.28107  -5310609.80907      3067.91307        38.87507  24099884.18808
  -3904043.43908      2390.58108        41.37508
  20189509.34409 -26072072.54409        68.52809        54.62509  20189510.96909
 -20081274.70909        53.39809        58.62509
 25  3  7  0 11  0.0000000  0  9G01G02G08G10G23G24G27G28G32
  24497519.71907  -1842654.33307      3182.47307        38.12507  24497521.25007
  -1201468.34807      2479.84907        39.81207
  22949762.53108  -9598187.44708      3432.79808        40.75008  22949762.71908
  -7239554.23008      2674.90708        43.93808
  21491158.15609 -17797231.52609       -38.75009        50.25009  21491161.65609
 -13633397.32609       -30.19509        53.75009
  21430461.90609 -18464832.55209     -1737.98309        53.18809  21430464.56209
 -14153851.15609     -1354.27309        54.81209
  24298226.28107  -2272545.35807     -2579.50207        38.50007  24298230.40608
  -1530432.69808     -2010.00108        40.31208
  25803171.18806    968394.66606     -1633.45706        28.18806  25803177.53107
    384900.83307     -1272.82407        32.56207
  21522951.34409 -19721424.91509     -2119.90209        51.12509  21522954.46909
 -15133556.18309     -1651.87209        54.12509
  24082368.68807  -5402630.11607      3066.70907        39.25007  24082373.50008
  -3975747.40608      2389.64308        42.43808
  20189175.40609 -26073827.48209        48.50309        54.68809  20189177.31209
 -20082642.20909        37.79509        58.81209
 25  3  7  0 11 30.0000000  0  9G01G02G08G10G23G24G27G28G32
  24479348.25007  -1938147.39107      3183.74807        38.43807  24479350.18808
  -1275878.50708      2480.84208        40.31208
  22930177.71908  -9701110.73208      3428.57408        41.81208  22930177.37508
  -7319754.15408      2671.61608        44.00008
  21491436.65609 -17795771.19409       -58.54709        50.56209  21491439.81209
 -13632259.44609       -45.62109        53.62509
  21440397.71909 -18412621.27909     -1742.59509        53.31209  21440399.93809
 -14113167.08409     -1357.86609        54.43809
  24312949.18807  -2195168.20907     -2578.70807        37.50007  24312955.53108
  -1470139.01608     -2009.38308        41.12508
  25812534.81206   1017601.28106          .00006        28.56206  25812538.18806
    423243.78206          .00006        29.75006
  21535096.53109 -19657602.74809     -2134.92209        51.31209  21535099.68809
 -15083824.69609     -1663.57509        54.12509
  24064865.21907  -5494610.42907      3065.53207        38.62507  24064869.34408
  -4047420.16308      2388.72608        41.81208
  20188955.00009 -26074985.25009        28.66509        54.81209  20188956.93809
 -20083544.36009        22.33609        58.56209
 25  3  7  0 12  0.0000000  0  8G01G02G08G10G23G27G28G32
  24461172.43807  -2033663.16907      3184.15807        39.18807  24461174.40608
  -1350306.38408      2481.16208        40.43808
  22910616.18808  -9803905.71008      3424.39208        42.18808  22910615.75008
  -7399854.12008      2668.35708        43.50008
  21491827.68809 -17793715.83109       -78.29309        50.75009  21491830.75009
 -13630657.90409       -61.00809        53.50009
  21450359.96909 -18360267.46709     -1747.44409        53.12509  21450362.81209
 -14072371.95909     -1361.64509        54.56209
  24327671.43807  -2117810.47607     -2578.27907        37.93807  24327677.21908
  -1409860.46508     -2009.04808        41.31208
  21547327.06209 -19593329.95409     -2149.88509        51.31209  21547330.53109
 -15033742.08109     -1675.23509        54.18809
  24047369.28107  -5586547.50807      3063.61607        38.06207  24047374.65608
  -4119059.30008      2387.23308        41.81208
  20188848.18809 -26075546.33309         8.85709        54.93809  20188850.21909
 -20083981.57109         6.90209        58.62509
 25  3  7  0 12 30.0000000  0  8G01G02G08G10G23G27G28G32
  24442991.81207  -2129200.49007      3184.99307        38.68807  24442994.56208
  -1424751.03108      2481.81208        41.06208
  22891080.43808  -9906569.88508      3420.15908        42.06208  22891079.46908
  -7479852.15108      2665.05908        44.25008
  21492331.93809 -17791065.95409       -98.13009        50.75009  21492335.06209
 -13628593.09509       -76.46509        53.75009
  21460349.37509 -18307772.06309     -1752.12209        52.93809  21460352.59409
 -14031466.49109     -1365.29009        54.87509
  24342387.40607  -2040472.42407     -2577.59507        38.06207  24342392.56207
  -1349597.26007     -2008.51607        39.75007
  21559643.06209 -19528609.23909     -2164.73909        51.25009  21559646.40609
 -14983310.42609     -1686.80909        54.31209
  24029883.40607  -5678438.52907      3062.46607        39.25007  24029886.62508
  -4190662.51508      2386.33708        41.37508
  20188855.03109 -26075511.49909       -10.97409        55.06209  20188856.65609
 -20083954.42309        -8.55109        58.87509
 25  3  7  0 13  0.0000000  0  8G01G02G08G10G23G27G28G32
  24424807.65607  -2224757.95707      3185.85007        37.93807  24424809.75008
  -1499211.37408      2482.48008        40.68808
  22871568.43808 -10009100.74208      3415.63008        41.31208  22871568.81208
  -7559746.29808      2661.53008        44.37508
  21492949.18809 -17787821.95309      -117.93009        50.37509  21492952.53109
 -13626065.34409       -91.89309        53.50009
  21470365.71909 -18255135.82509     -1756.88209        52.75009  21470368.93809
 -13990451.29709     -1368.99909        54.75009
  24357101.37507  -1963154.07107     -2576.68207        37.62507  24357106.59408
  -1289349.38708     -2007.80408        40.62508
  21572043.96909 -19463443.09309     -2179.48709        50.87509  21572047.25009
 -14932531.69009     -1698.30209        53.87509
  24012406.65607  -5770280.32507      3060.51007        39.25007  24012410.84408
  -4262227.45308      2384.81308        41.43808
  20188974.81209 -26074881.37609       -30.82009        54.81209  20188976.56209
 -20083463.43809       -24.01609        58.68809
 25  3  7  0 13 30.0000000  0  8G01G02G08G10G23G27G28G32
  24406620.90607  -2320334.43107      3186.03007        38.68807  24406622.21908
  -1573686.54808      2482.62108        40.18808
  22852083.87508 -10111496.11308      3410.91308        41.87508  22852084.37508
  -7639534.85808      2657.85408        44.68808
  21493679.21909 -17783984.54109      -137.66809        50.50009  21493682.71909
 -13623075.18609      -107.27409        53.43809
  21480409.03109 -18202359.79809     -1761.51909        52.93809  21480412.15609
 -13949327.16309     -1372.61209        54.87509
  24371810.65607  -1885855.70707     -2576.21107        38.25007  24371816.84408
  -1229117.08708     -2007.43708        41.87508
  21584529.03109 -19397834.31009     -2194.27209        51.00009  21584532.09409
 -14881408.03009     -1709.82309        53.75009
  23994937.93807  -5862070.17907      3058.83507        38.18807  23994943.37508
  -4333751.85008      2383.50808        41.37508
  20189207.75009 -26073656.88009       -50.65709        54.87509  20189209.62509
 -20082509.27909       -39.47309        58.62509
 25  3  7  0 14  0.0000000  0  8G01G02G08G10G23G27G28G32
  24388429.40607  -2415928.37107      3186.59207        38.18807  24388432.31208
  -1648175.35108      2483.05908        40.93808
  22832624.65608 -10213753.24908      3406.14008        41.68808  22832624.31208
  -7719215.70808      2654.13508        43.93808
  21494522.68809 -17779553.98009      -157.61509        50.56209  21494525.78109
 -13619622.83709      -122.81709        53.56209
  21490478.50009 -18149444.61409     -1766.24509        52.81209  21490481.65609
 -13908094.61009     -1376.29509        54.87509
  24386517.34407  -1808577.28507     -2575.54407        39.18807  24386522.00008
  -1168900.31408     -2006.91808        41.18808
  21597097.65609 -19331785.33609     -2209.09909        50.93809  21597100.93809
 -14829941.37409     -1721.37609        53.93809
  23977480.59407  -5953804.82807      3056.75507        37.75007  23977486.96908
  -4405233.22908      2381.88708        42.06208
  20189553.81209 -26071838.57509       -70.58609        54.93809  20189555.68809
 -20081092.42809       -55.00209        58.75009
 25  3  7  0 14 30.0000000  0  9G01G02G08G10G23G24G27G28G32
  24370235.78107  -2511538.47407      3187.16307        38.06207  24370238.09408
  -1722676.70208      2483.50408        41.12508
  22813192.78108 -10315869.82208      3401.40108        42.50008  22813191.87508
  -7798787.08308      2650.44308        43.75008
  21495478.46909 -17774530.87709      -177.25309        50.68809  21495481.62509
 -13615708.77309      -138.12009        53.50009
  21500574.37509 -18096391.09909     -1770.73509        53.06209  21500577.37509
 -13866754.26509     -1379.79309        54.62509
  24401217.87507  -1731318.88407     -2574.64607        38.31207  24401225.21908
  -1108699.16508     -2006.21808        41.81208
  25870198.78106     41765.11306     -1719.71706        25.37506  25870203.93806
     26761.74206     -1340.03906        27.25006
  21609749.50009 -19265298.82709     -2223.52809        51.06209  21609753.03109
 -14778133.78909     -1732.61909        53.81209
  23960036.65607  -6045481.28907      3055.03207        39.00007  23960041.56208
  -4476669.25708      2380.54408        42.62508
  20190012.53109 -26069427.28709       -90.23909        55.18809  20190014.50009
 -20079213.50909       -70.31609        58.68809
 25  3  7  0 15  0.0000000  0  8G01G02G08G10G23G27G28G32
  24352038.43807  -2607163.32107      3187.53707        37.18807  24352040.81208
  -1797189.57608      2483.79508        41.00008
  22793787.18808 -10417843.36508      3396.73808        41.31208  22793787.31208
  -7878246.96608      2646.80908        44.18808
  21496546.84409 -17768915.74509      -197.00409        50.50009  21496550.34409
 -13611333.38909      -153.51009        53.62509
  21510696.25009 -18043200.05409     -1775.29309        52.87509  21510699.25009
 -13825306.75109     -1383.34509        54.62509
  24415917.40607  -1654080.56907     -2574.16507        38.62507  24415922.50008
  -1048513.67808     -2005.84308        41.68808
  21622484.43809 -19198377.41709     -2237.85209        51.00009  21622487.78109
 -14725987.32009     -1743.78009        53.81209
  23942603.00007  -6137096.45507      3053.00007        39.75007  23942607.93808
  -4548057.57208      2378.96108        42.62508
  20190584.43809 -26066423.75909      -109.96109        55.12509  20190586.09409
 -20076873.11709       -85.68409        58.75009
 25  3  7  0 15 30.0000000  0  8G01G02G08G10G23G27G28G32
  24333838.84407  -2702801.66407      3188.23207        37.62507  24333841.68808
  -1871712.90308      2484.33708        41.18808
  22774410.31208 -10519670.65808      3391.75508        41.81208  22774410.59408
  -7957592.86508      2642.92608        44.37508
  21497727.87509 -17762709.21009      -216.71109        50.56209  21497731.50009
 -13606497.15409      -168.86609        53.56209
  21520844.18809 -17989872.31109     -1779.92409        52.87509  21520847.18809
 -13783752.71609     -1386.95409        54.43809
  24430610.40607  -1576862.48007     -2573.41107        37.93807  24430616.96908
   -988343.94408     -2005.25508        40.81208
  21635301.50009 -19131023.76209     -2252.34109        51.12509  21635304.90609
 -14673504.03009     -1755.07109        53.75009
  23925181.46907  -6228647.34707      3050.70807        39.50007  23925185.37508
  -4619395.83208      2377.17508        41.56208
  20191268.62509 -26062828.87809      -129.66109        55.25009  20191270.28109
 -20074071.91509      -101.03409        58.68809
 25  3  7  0 16  0.0000000  0  9G01G02G08G10G23G27G28G31G32
  24315637.96907  -2798451.98807      3188.36707        38.68807  24315640.28108
  -1946245.64808      2484.44208        40.87508
  22755061.78108 -10621350.13508      3386.77708        42.06208  22755061.59408
  -8036823.59508      2639.04708        44.56208
  21499021.56209 -17755911.98309      -236.49909        50.31209  21499025.00009
 -13601200.64809      -184.28509        53.75009
  21531017.87509 -17936408.72609     -1784.31409        52.56209  21531020.71909
 -13742092.83509     -1390.37509        54.43809
  24445300.96907  -1499664.80507     -2572.79507        37.18807  24445307.40608
   -928190.07608     -2004.77608        41.43808
  21648200.18809 -19063240.63609     -2266.52609        50.81209  21648203.68809
 -14620686.08409     -1766.12409        53.87509
  23907771.93807  -6320131.08207      3048.39407        37.87507  23907777.03108
  -4690681.68708      2375.37208        42.25008
  25122087.71908    977166.91408      2906.77708        41.06208  25122097.00008
    995250.96608      2265.02108        45.25008
  20192064.75009 -26058643.49409      -149.32909        54.87509  20192066.56209
 -20070810.58509      -116.36009        58.75009
 25  3  7  0 16 30.0000000  0  9G01G02G08G10G23G27G28G31G32
  24297433.96907  -2894112.95007      3188.81807        37.81207  24297436.50008
  -2020786.63908      2484.79308        40.06208
  22735741.40608 -10722879.04108      3381.68208        42.25008  22735740.96908
  -8115936.99808      2635.07708        44.12508
  21500427.21909 -17748524.59309      -255.91609        50.50009  21500430.90609
 -13595444.26709      -199.41509        53.62509
  21541217.31209 -17882809.96709     -1788.80409        52.75009  21541220.37509
 -13700327.61309     -1393.87309        54.37509
  24459987.50007  -1422487.43907     -2572.29707        38.06207  24459994.06208
   -868052.09508     -2004.38808        41.43808
  21661180.09409 -18995030.60709     -2280.71309        50.87509  21661183.50009
 -14567535.49809     -1777.17909        53.68809
  23890376.43807  -6411544.41507      3045.99107        38.75007  23890381.34408
  -4761912.71608      2373.50008        42.12508
  25105479.78107    889894.75707      2911.40907        39.93807  25105488.78108
    927246.85808      2268.63008        44.56208
  20192973.56209 -26053868.41209      -168.84309        55.18809  20192975.31209
 -20067089.74509      -131.56609        58.62509
 25  3  7  0 17  0.0000000  0  9G01G02G08G10G23G27G28G31G32
  24279228.03107  -2989783.15907      3189.09907        37.12507  24279230.81207
  -2095334.86307      2485.01207        39.81207
  22716449.96908 -10824254.76008      3376.80208        41.87508  22716449.56208
  -8194931.05908      2631.27408        44.12508
  21501945.46909 -17740547.74809      -275.59309        50.43809  21501948.87509
 -13589228.59409      -214.74809        53.50009
  21551442.50009 -17829076.88609     -1793.30309        52.81209  21551445.93809
 -13658457.75009     -1397.37909        54.62509
  24474669.62507  -1345330.50007     -2571.52607        36.25007  24474676.31208
   -807929.99908     -2003.78608        40.75008
  21674241.09409 -18926396.41709     -2294.88309        50.93809  21674244.50009
 -14514054.40409     -1788.22009        53.75009
  23872995.46907  -6502884.35807      3043.47907        39.87507  23873000.15608
  -4833086.56308      2371.54208        42.68808
  25088846.37507    802484.17107      2915.87607        37.00007  25088855.15608
    859134.86108      2272.11208        43.43808
  20193994.46909 -26048504.56409      -188.60609        55.18809  20193996.09409
 -20062910.14409      -146.96609        58.56209
 25  3  7  0 17 30.0000000  0  9G01G02G08G10G23G27G28G31G32
  24261021.31207  -3085461.14007      3189.45107        37.00007  24261023.59408
  -2169889.12908      2485.28608        40.31208
  22697188.21908 -10925474.61808      3371.38908        41.68808  22697188.43808
  -8273803.62308      2627.05608        44.56208
  21503575.09409 -17731982.11709      -295.30809        50.18809  21503578.81209
 -13582554.11409      -230.11009        53.50009
  21561693.25009 -17775210.18209     -1797.76609        52.75009  21561696.18809
 -13616483.74709     -1400.85709        54.68809
  24489349.78107  -1268194.10007     -2570.74707        37.81207  24489354.81207
   -747823.92507     -2003.18007        40.00007
  21687381.93809 -18857340.78109     -2308.78209        50.75009  21687385.43809
 -14460244.89509     -1799.05109        53.75009
  23855628.65607  -6594147.83907      3041.06007        39.43807  23855633.28108
  -4904200.84308      2369.65708        43.31208
  25072187.28107    714937.70807      2920.26607        39.12507  25072195.50008
    790917.01708      2275.53208        42.62508
  20195126.71909 -26042552.85209      -208.08609        54.81209  20195128.53109
 -20058272.45209      -162.14509        58.56209
 25  3  7  0 18  0.0000000  0  9G01G02G08G10G23G27G28G31G32
  24242813.75007  -3181145.66707      3189.66607        37.43807  24242814.78107
  -2244448.49707      2485.45407        40.00007
  22677957.15608 -11026536.30108      3366.19408        42.56208  22677957.03108
  -8352552.95608      2623.00808        44.87508
  21505317.46909 -17722828.56809      -314.96809        50.18809  21505320.46909
 -13575421.52609      -245.43009        53.50009
  21571968.84409 -17721210.75309     -1802.21409        52.62509  21571972.00009
 -13574406.32709     -1404.32309        54.68809
  24504022.90607  -1191078.31007     -2570.38607        36.62507  24504030.18807
   -687733.92807     -2002.89807        39.87507
  21700602.50009 -18787866.50809     -2322.75109        50.62509  21700606.28109
 -14406109.18809     -1809.93609        54.06209
  23838275.75007  -6685331.96107      3038.04007        38.12507  23838281.12508
  -4975253.25108      2367.30308        42.75008
  25055502.34408    627257.59608      2925.16108        40.87508  25055510.25008
    722594.98808      2279.34608        44.31208
  20196370.90609 -26036014.31609      -227.67809        54.81209  20196372.87509
 -20053177.49809      -177.41209        58.75009
 25  3  7  0 18 30.0000000  0  9G01G02G08G10G23G27G28G31G32
  24224603.96907  -3276835.19907      3189.72407        37.62507  24224606.34408
  -2319011.73408      2485.49908        40.75008
  22658756.34408 -11127436.96908      3360.43008        42.68808  22658756.56208
  -8431176.81408      2618.51708        45.31208
  21507171.09409 -17713087.81409      -334.55809        50.43809  21507174.37509
 -13567831.35609      -260.69509        53.50009
  21582269.71909 -17667079.35809     -1806.75509        52.62509  21582272.93809
 -13532226.05909     -1407.86109        54.31209
  24518695.00007  -1113983.24507     -2569.82207        37.93807  24518700.50007
   -627660.02707     -2002.45807        39.50007
  21713902.21909 -18717976.36309     -2336.75809        50.81209  21713905.84409
 -14351649.42909     -1820.85009        53.68809
  23820939.43807  -6776433.66607      3035.15607        38.56207  23820943.78108
  -5046241.44708      2365.05708        41.43808
  25038792.31208    539446.08208      2929.18508        40.06208  25038800.40608
    654170.62108      2282.48108        44.25008
  20197727.15609 -26028889.90309      -247.24409        55.12509  20197728.46909
 -20047626.01509      -192.65709        58.62509
 25  3  7  0 19  0.0000000  0  9G01G02G08G10G23G27G28G31G32
  24206394.37507  -3372528.04807      3190.00507        37.43807  24206396.34408
  -2393577.62108      2485.71808        40.18808
  22639586.71908 -11228173.93908      3355.12508        42.43808  22639587.00008
  -8509673.11108      2614.38308        45.12508
  21509136.12509 -17702760.34409      -354.03109        50.25009  21509139.40609
 -13559784.01009      -275.86809        53.43809
  21592595.65609 -17612816.44109     -1810.97209        52.37509  21592598.84409
 -13489943.31709     -1411.14709        54.31209
  24533362.81207  -1036908.66507     -2568.92807        38.12507  24533367.84408
   -567602.15008     -2001.76208        40.75008
  21727280.53109 -18647672.76009     -2350.33909        50.75009  21727284.31209
 -14296867.48809     -1831.43309        53.75009
  23803620.71907  -6867449.49207      3032.35407        39.93807  23803624.71908
  -5117162.75108      2362.87308        41.93808
  25022057.18807    451505.77507      2933.44507        39.56207  25022065.15608
    585645.87208      2285.80108        42.93808
  20199193.81209 -26021180.29109      -266.70909        54.87509  20199195.75009
 -20041618.53109      -207.82509        58.75009
 25  3  7  0 19 30.0000000  0  9G01G02G08G10G23G27G28G31G32
  24188184.15607  -3468222.83007      3189.83407        37.18807  24188186.59408
  -2468145.01208      2485.58508        41.12508
  22620449.00008 -11328744.88508      3349.61408        43.18808  22620448.15608
  -8588040.05108      2610.08908        44.87508
  21511212.56209 -17691847.06609      -373.38609        50.18809  21511216.34409
 -13551280.19409      -290.95009        53.56209
  21602946.40609 -17558422.84509     -1815.31509        52.56209  21602949.50009
 -13447558.75709     -1414.53109        54.31209
  24548024.40607   -959854.69707     -2568.27407        37.25007  24548031.18808
   -507560.30708     -2001.25208        40.68808
  21740737.25009 -18576958.62409     -2363.86509        50.75009  21740740.71909
 -14241765.65109     -1841.97309        53.68809
  23786316.68807  -6958376.51707      3029.45807        39.81207  23786321.84408
  -5188014.87508      2360.61708        42.93808
  25005299.68808    363439.11608      2937.70008        41.50008  25005306.87508
    517022.67908      2289.11708        42.75008
  20200771.93809 -26012886.61809      -286.09109        54.93809  20200774.03109
 -20035155.94509      -222.92809        58.81209
 25  3  7  0 20  0.0000000  0  9G01G02G08G10G23G27G28G31G32
  24169974.50007  -3563918.09207      3189.91507        38.00007  24169977.15608
  -2542712.74008      2485.64808        41.18808
  22601342.96908 -11429147.07808      3344.10608        43.12508  22601342.68808
  -8666275.48508      2605.79708        45.06208
  21513401.18809 -17680348.80309      -392.89609        50.37509  21513404.25009
 -13542320.55809      -306.15209        53.18809
  21613322.25009 -17503899.29709     -1819.60909        52.68809  21613324.96909
 -13405072.93809     -1417.87709        53.93809
  24562684.68807   -882821.32707     -2567.35407        38.00007  24562690.28107
   -447534.50607     -2000.53507        39.93807
  21754271.40609 -18505836.65609     -2377.44909        50.81209  21754274.84409
 -14186346.03509     -1852.55709        53.50009
  23769030.84407  -7049211.69607      3026.12107        38.50007  23769037.12508
  -5258795.41008      2358.01608        43.37508
  24988516.50008    275248.41908      2941.70908        40.50008  24988524.50008
    448302.84608      2292.24108        42.50008
  20202461.18809 -26004009.87909      -305.56409        54.93809  20202463.12509
 -20028239.02209      -238.10209        58.62509
 25  3  7  0 20 30.0000000  0  9G01G02G08G10G23G27G28G31G32
  24151763.18807  -3659612.45107      3189.59207        37.93807  24151766.46908
  -2617279.78608      2485.39608        41.18808
  22582269.81208 -11529378.10208      3338.09608        43.18808  22582268.90608
  -8744377.55808      2601.11408        45.12508
  21515700.21909 -17668266.55009      -412.46809        50.37509  21515703.40609
 -13532905.84509      -321.40409        53.31209
  21623722.15609 -17449246.65809     -1823.98209        52.81209  21623725.28109
 -13362486.52109     -1421.28509        54.37509
  24577338.40607   -805808.77407     -2566.84307        36.81207  24577344.90607
   -387524.91807     -2000.13807        39.43807
  21767882.37509 -18434309.83609     -2390.92809        50.75009  21767886.00009
 -14130610.93809     -1863.06109        53.62509
  23751764.46907  -7139952.16307      3023.10507        38.68807  23751769.43808
  -5329502.06408      2355.66708        43.06208
  24971710.81207    186935.83407      2945.77407        39.50007  24971719.75008
    379488.01708      2295.40808        42.62508
  20204260.84409 -25994551.28209      -324.94609        54.93809  20204263.21909
 -20020868.70209      -253.20509        58.81209
 25  3  7  0 21  0.0000000  0  9G01G02G08G10G23G27G28G31G32
  24133554.03107  -3755304.38607      3189.51907        37.68807  24133556.40608
  -2691844.94108      2485.34008        40.75008
  22563228.81208 -11629435.37908      3332.35108        42.87508  22563228.96908
  -8822344.22608      2596.63708        45.31208
  21518110.21909 -17655601.13309      -431.91409        50.12509  21518113.78109
 -13523036.73609      -336.55609        53.43809
  21634146.90609 -17394465.55409     -1828.19309        52.75009  21634150.06209
 -13319800.01209     -1424.56609        54.56209
  24591990.59407   -728817.00007     -2565.92007        37.25007  24591995.96907
   -327531.53107     -1999.41807        39.18807
  21781570.46909 -18362380.87709     -2404.33609        50.56209  21781573.81209
 -14074562.49409     -1873.50909        53.56209
  23734516.34408  -7230594.58908      3019.60908        40.31208  23734518.90608
  -5400132.44008      2352.94208        41.62508
  24954882.43808     98503.76808      2949.72908        40.68808  24954891.43808
    310580.17208      2298.49008        44.75008
  20206171.71909 -25984511.84409      -344.30409        54.87509  20206173.46909
 -20013045.78009      -268.28909        58.68809
 25  3  7  0 21 30.0000000  0  9G01G02G08G10G23G27G28G31G32
  24115345.50007  -3850992.60107      3189.38507        37.81207  24115348.06208
  -2766407.14508      2485.23508        41.37508
  22544222.59408 -11729316.28108      3326.47208        43.06208  22544221.96908
  -8900173.47408      2592.05608        45.00008
  21520631.28109 -17642353.64809      -451.26709        50.06209  21520634.93809
 -13512714.04209      -351.63709        53.43809
  21644595.68809 -17339556.92909     -1832.48309        52.50009  21644598.81209
 -13277014.12609     -1427.90909        54.50009
  24606637.37507   -651846.15307     -2565.43007        37.18807  24606643.81208
   -267554.48208     -1999.03608        40.18808
  21795333.93809 -18290052.80109     -2417.65609        50.25009  21795337.21909
 -14018203.04409     -1883.88809        53.25009
  23717286.46907  -7321136.20507      3016.25207        39.81207  23717289.56208
  -5470684.25008      2350.32708        41.31208
  24938032.15608      9954.60408      2953.54508        42.43808  24938040.62508
    241581.07708      2301.46408        44.43808
  20208192.18809 -25973892.81809      -363.64309        54.56209  20208194.28109
 -20004771.22609      -283.35809        58.75009
 25  3  7  0 22  0.0000000  0  9G01G02G08G10G23G27G28G31G32
  24097137.59407  -3946675.35407      3189.41207        38.06207  24097139.59408
  -2840965.12308      2485.25608        41.31208
  22525250.15608 -11829018.01308      3320.53708        43.37508  22525249.06208
  -8977863.12608      2587.43108        45.00008
  21523263.21909 -17628524.83109      -470.40809        50.50009  21523266.50009
 -13501938.37909      -366.55109        53.62509
  21655068.75009 -17284521.23709     -1836.57009        52.62509  21655071.81209
 -13234129.24409     -1431.09309        54.50009
  24621281.12507   -574896.14507     -2564.73107        36.93807  24621287.68808
   -207593.65308     -1998.49208        40.68808
  21809172.93809 -18217328.22409     -2430.51309        50.43809  21809176.31209
 -13961534.63309     -1893.90609        53.37509
  23700075.81207  -7411573.69907      3012.88607        38.87507  23700080.62508
  -5541154.92008      2347.70308        43.12508
  24921159.84408    -78708.98808      2957.45408        41.06208  24921167.09408
    172492.81008      2304.50908        41.87508
  20210323.00009 -25962695.14209      -382.68109        54.87509  20210325.21909
 -19996045.78409      -298.19309        58.81209
 25  3  7  0 22 30.0000000  0  9G01G02G08G10G23G27G28G31G32
  24078931.21907  -4042351.15307      3189.07507        38.25007  24078933.71908
  -2915517.64608      2484.99308        41.81208
  22506311.81208 -11928537.81308      3314.25308        42.93808  22506311.65608
  -9055411.00308      2582.53508        45.43808
  21526004.96909 -17614115.63009      -490.00709        50.25009  21526008.25009
 -13490710.46609      -381.82409        53.43809
  21665565.62509 -17229359.15909     -1840.99909        52.25009  21665568.62509
 -13191145.85709     -1434.54409        54.12509
  24635920.03107   -497966.94607     -2563.92107        37.18807  24635926.93808
   -147649.02808     -1997.86008        40.25008
  21823086.96909 -18144209.93809     -2443.81309        50.06209  21823090.53109
 -13904559.42809     -1904.27009        53.25009
  23682885.68807  -7501904.01707      3009.17207        38.31207  23682891.81208
  -5611541.99308      2344.81008        43.75008
  24904265.93808   -167484.54408      2960.99908        40.68808  24904273.81208
    103317.31108      2307.27108        41.87508
  20212564.09409 -25950919.92409      -402.10909        54.81209  20212565.90609
 -19986870.29609      -313.33209        58.75009
 25  3  7  0 23  0.0000000  0  9G01G02G08G10G23G27G28G31G32
  24060726.09407  -4138018.33407      3188.66907        38.12507  24060728.12508
  -2990063.50108      2484.67708        41.18808
  22487408.46908 -12027873.13808      3308.10808        42.43808  22487408.18808
  -9132815.12108      2577.74608        44.93808
  21528857.12509 -17599126.95709      -509.29909        50.12509  21528860.59409
 -13479031.02409      -396.85709        53.18809
  21676086.96909 -17174071.30909     -1845.00509        52.50009  21676089.78109
