     3.04           OBSERVATION DATA    M (MIXED)           RINEX VERSION / TYPE
BLANK OR G = GPS, R = GLONASS, C = BDS, E = GAL, J = QZSS, M = MIXEDCOMMENT             
HGO                 HITARGET            20250510 112538 UTC PGM / RUN BY / DATE 
1111                                                        MARKER NAME         
                                                            MARKER NUMBER       
whoever             HITARGET                                OBSERVER / AGENCY   
10020466            iRTK2                                   REC # / TYPE / VERS 
1                   HITIRTK2-2                              ANT # / TYPE        
 -2623864.1664  3976988.9231  4226060.4714                  APPROX POSITION XYZ 
------------------------------------------------------------COMMENT             
*** Antenna height is from mark to ANTENNA Phase Center.    COMMENT             
------------------------------------------------------------COMMENT             
        1.4072        0.0000        0.0000                  ANTENNA: DELTA H/E/N
G    9 C1C C2W C2X L1C L2W L2X S1C S2W S2X                  SYS / # / OBS TYPES 
R   12 C1C C1P C2P C2C L1C L1P L2P L2C S1C S1P S2P S2C      SYS / # / OBS TYPES 
E   12 C1X C5X C7X C8X L1X L5X L7X L8X S1X S5X S7X S8X      SYS / # / OBS TYPES 
C    6 C2I C7I L2I L7I S2I S7I                              SYS / # / OBS TYPES 
     5.000                                                  INTERVAL            
  2025     4    10     6    34   10.0000000     GPS         TIME OF FIRST OBS   
  2025     4    10     6    55   35.0000000     GPS         TIME OF LAST OBS    
     0                                                      RCV CLOCK OFFS APPL 
    18                                                      LEAP SECONDS        
                                                            END OF HEADER       
> 2025 04 10 06 34 10.0000000  0 30
G22  22099359.195    22099366.254                   116132914.590    90493210.437                          44.900          32.700                  
G03  22398671.594                    22398682.430   117705808.694                    91718856.456          41.800                          44.300  
G04  23697388.320                    23697400.203   124530619.680                    97036894.877          39.100                          40.500  
G19  20019704.734    20019708.695                   105204255.302    81977357.554                          47.300          41.200                  
G06  21257300.820                    21257311.070   111707868.157                    87045117.341          46.900                          47.500  
G09  24004601.711                    24004618.105   126145033.441                    98294906.639          37.300                          41.400  
G17  20808932.703                    20808939.375   109351678.646                    85209128.015          47.200                          47.500  
G14  22978794.242                    22978805.742   120754380.593                    94094343.880          41.200                          41.100  
G11  23625283.438                    23625293.445   124151696.049                    96741618.589          39.900                          40.900  
R01  21141156.641    21141155.594                                   113011592.681   113011586.683                                          43.600          42.500                                  
R02  21219069.273    21219068.539    21219078.340    21219077.773   113229021.004   113229012.993    88067007.829    88067013.840          46.700          46.400          45.600          46.300  
R16  21650957.078    21650956.387    21650965.035    21650965.160   115655578.988   115655516.990    89954288.581    89954295.585          45.800          44.000          44.900          45.900  
R24  21761760.922    21761760.223    21761770.281    21761769.980   116369909.663   116369900.659    90509923.788    90509929.792          44.100          42.700          45.000          45.300  
R15  21564590.781    21564591.484    21564601.102    21564600.840   115234636.605   115234618.617    89626928.121    89626933.124          44.700          43.100          44.100          44.500  
R17  19856498.156    19856496.750    19856505.215    19856504.965   106256134.678   106256112.668    82643650.957    82643655.967          48.400          47.300          49.100          50.200  
R18  21845367.484    21845366.059    21845374.891    21845374.449   116612050.034   116612038.060    90698250.822    90698254.819          42.800          42.300          44.900          45.000  
E13  26340137.016    26340147.926    26340145.207    26340148.203   138418346.692   103364330.062   106060790.760   104712557.518          40.500          41.300          43.200          48.000  
E15  23583110.000    23583117.434    23583115.605    23583117.918   123930077.594    92545165.867    94959387.122    93752284.600          48.900          48.600          50.000          55.400  
E21  26800210.789    26800219.375    26800218.203    26800220.289   140836057.327   105169759.952   107913319.619   106541536.392          39.600          41.900          44.000          49.000  
E27  24379194.094    24379201.367    24379199.820    24379201.945   128113528.789    95669177.253    98164895.302    96917029.886          49.500          47.800          48.600          54.400  
E30  26114747.945    26114758.801    26114756.082    26114758.965   137233925.107   102479862.616   105153251.038   103816545.438          43.200          45.100          46.500          51.300  
E05  25659389.594    25659401.469    25659400.719    25659402.402   134841008.154   100692952.808   103319726.016   102006319.018          39.400          40.000          42.900          47.100  
C04  38608134.047    38608133.777   201042684.032   155458953.015          37.100          40.800  
C03  37585162.555    37585162.918   195715803.307   151339872.655          38.300          42.300  
C02  39065860.594    39065860.469   203426211.726   157302032.135          35.500          38.500  
C01  38140519.305    38140520.945   198607685.467   153576070.667          38.600          42.600  
C30  22093331.188                   115045770.918                          47.800                  
C29  22565160.469                   117502709.963                          47.500                  
C20  24540753.555                   127790145.745                          41.300                  
C13  39075920.133    39075929.148   203478570.014   157342572.174          38.700          40.900  
> 2025 04 10 06 34 15.0000000  0 30
G22  22101211.172    22101218.109                   116142646.597    90500793.817                          45.100          33.100                  
G03  22400971.828                    22400982.598   117717896.200                    91728275.290          41.900                          43.300  
G04  23694978.180                    23694990.234   124517953.684                    97027025.316          38.100                          40.800  
G19  20018302.250    20018306.746                   105196887.723    81971616.601                          46.800          41.400                  
G06  21255514.703                    21255524.156   111698478.590                    87037800.781          47.800                          47.800  
G09  24001222.789                    24001239.637   126127281.503                    98281074.065          37.500                          40.200  
G17  20809292.508                    20809299.406   109353569.960                    85210601.769          47.200                          47.300  
G14  22981664.703                    22981676.113   120769465.287                    94106098.144          42.000                          42.000  
G11  23622279.086                    23622288.863   124135905.570                    96729314.347          40.400                          41.100  
R01  21141443.750    21141442.586                                   113013127.391   113013121.370                                          43.100          42.000                                  
R02  21215802.195    21215801.344    21215810.801    21215810.770   113211587.304   113211579.315    88053448.298    88053454.309          46.400          46.100          45.500          46.700  
R16  21649885.703    21649884.660    21649894.137    21649894.789   115649860.321   115649798.313    89949840.717    89949847.729          45.200          44.300          46.000          46.800  
R24  21763440.969    21763438.625    21763447.996    21763448.184   116378887.336   116378878.346    90516906.420    90516912.423          43.500          42.500          44.600          44.800  
R15  21566948.172    21566947.816    21566957.023    21566957.156   115247229.650   115247211.664    89636722.684    89636727.688          45.300          43.900          44.400          44.000  
R17  19855709.008    19855707.484    19855715.699    19855715.813   106251912.459   106251890.451    82640367.004    82640372.008          48.200          46.700          48.600          50.000  
R18  21842606.414    21842606.746    21842615.242    21842614.563   116597314.922   116597302.913    90686790.198    90686794.193          42.100          40.900          44.800          45.500  
E13  26337757.063    26337767.945    26337765.695    26337768.336   138405840.903   103354991.345   106051208.427   104703096.996          39.600          41.500          43.100          48.000  
E15  23582468.766    23582476.219    23582474.531    23582476.777   123926708.423    92542649.922    94956805.545    93749735.841          48.600          48.100          48.900          55.600  
E21  26797781.023    26797789.750    26797787.500    26797790.211   140823286.898   105160223.584   107903534.479   106531875.642          39.000          41.200          43.100          47.900  
E27  24379269.969    24379277.594    24379275.855    24379278.051   128113927.252    95669474.796    98165200.604    96917331.309          48.300          47.000          48.200          54.400  
E30  26116950.352    26116960.559    26116958.590    26116960.883   137245497.021   102488503.971   105162117.822   103825299.505          43.800          43.600          45.500          51.000  
E05  25657736.492    25657748.848    25657747.535    25657749.668   134832322.190   100686466.559   103313070.554   101999748.166          39.400          40.500          42.600          47.400  
C04  38607561.563    38607561.590   201039705.145   155456649.563          36.800          40.700  
C03  37584613.336    37584614.320   195712947.563   151337664.410          37.900          41.700  
C02  39065298.352    39065297.852   203423281.880   157299766.566          35.900          38.800  
C01  38139977.641    38139979.773   198604867.336   153573891.516          39.000          42.500  
C30  22093722.367                   115047807.499                          47.800                  
C29  22563090.648                   117491934.166                          47.500                  
C20  24537208.125                   127771686.652                          41.300                  
C13  39074199.875    39074209.066   203469613.601   157335646.535          38.600          40.500  
> 2025 04 10 06 34 20.0000000  0 30
G22  22103064.664    22103072.090                   116152387.215    90508383.890                          45.500          32.200                  
G03  22403273.773                    22403283.957   117729992.066                    91737700.608          42.900                          43.500  
G04  23692569.320                    23692581.715   124505296.043                    97017162.253          38.500                          40.200  
G19  20016902.227    20016906.215                   105189529.971    81965883.285                          46.600          40.600                  
G06  21253728.859                    21253738.910   111689095.249                    87030489.084          47.800                          47.600  
G09  23997844.492                    23997861.527   126109531.235                    98267242.778          37.100                          41.800  
G17  20809653.500                    20809660.738   109355469.617                    85212082.013          46.700                          48.300  
G14  22984536.242                    22984547.535   120784553.281                    94117855.002          41.500                          42.000  
G11  23619274.297                    23619284.383   124120117.908                    96717012.271          41.000                          41.700  
R01  21141734.961    21141733.680                                   113014683.073   113014677.075                                          43.200          41.900                                  
R02  21212537.844    21212536.406    21212545.738    21212545.930   113194167.431   113194159.421    88039899.525    88039905.543          47.300          46.600          45.900          46.100  
R16  21648819.547    21648818.738    21648828.293    21648828.348   115644162.266   115644100.230    89945408.914    89945415.910          43.800          42.600          45.500          46.800  
R24  21765118.820    21765118.824    21765128.098    21765128.148   116387867.846   116387858.847    90523891.262    90523897.266          42.900          42.000          44.000          45.400  
R15  21569307.523    21569306.348    21569315.988    21569315.805   115259835.281   115259817.264    89646527.062    89646532.065          46.300          44.700          43.600          44.300  
R17  19854920.984    19854919.461    19854927.453    19854927.492   106247696.073   106247674.073    82637087.610    82637092.621          48.700          46.900          48.500          49.900  
R18  21839846.055    21839845.332    21839854.559    21839853.922   116582581.660   116582569.664    90675330.988    90675334.984          43.100          41.900          44.200          44.500  
E13  26335377.820    26335388.418    26335386.262    26335388.918   138393336.965   103345654.000   106041627.507   104693637.856          40.500          42.100          44.000          48.800  
E15  23581828.203    23581835.758    23581834.164    23581836.305   123923342.836    92540136.664    94954226.727    93747189.806          48.200          48.600          49.500          55.700  
E21  26795352.039    26795360.422    26795359.016    26795361.328   140810523.361   105150692.393   107893754.646   106522220.128          42.500          42.100          44.000          49.100  
E27  24379347.617    24379355.180    24379353.492    24379355.699   128114336.097    95669780.105    98165513.876    96917640.596          47.600          47.400          48.500          54.400  
E30  26119152.586    26119163.664    26119161.461    26119163.859   137257072.499   102497147.966   105170987.338   103834056.263          43.700          44.300          47.000          51.800  
E05  25656085.070    25656097.992    25656095.504    25656098.172   134823644.535   100679986.535   103306421.473   101993183.612          38.300          41.900          43.800          48.200  
C04  38606989.719    38606989.488   201036724.791   155454344.951          36.600          40.400  
C03  37584064.688    37584065.590   195710090.300   151335454.999          38.300          42.000  
C02  39064734.891    39064735.141   203420350.470   157297499.845          35.600          39.100  
C01  38139436.688    38139438.164   198602047.756   153571711.231          38.200          42.000  
C30  22094114.570                   115049848.811                          49.000                  
C29  22561022.102                   117481161.142                          47.900                  
C20  24533664.227                   127753231.341                          42.000                  
C13  39072480.258    39072489.402   203460658.471   157328721.867          39.800          40.600  
> 2025 04 10 06 34 25.0000000  0 31
G22  22104920.141    22104927.250                   116162137.613    90515981.596                          45.900          33.600                  
G03  22405577.422                    22405587.953   117742097.397                    91747133.331          42.000                          45.500  
G04  23690162.750                    23690174.418   124492647.877                    97007306.554          38.600                          40.800  
G19  20015504.117    20015508.293                   105182183.263    81960158.584                          46.700          41.100                  
G06  21251944.031                    21251954.445   111679719.256                    87023183.117          47.000                          48.300  
G09  23994466.656                    23994484.816   126091783.721                    98253413.656          37.200                          42.400  
G17  20810016.563                    20810024.031   109357378.715                    85213569.617          46.200                          47.600  
G14  22987408.320                    22987420.078   120799645.757                    94129615.312          41.100                          43.600  
G11  23616271.344                    23616281.129   124104334.217                    96704713.301          39.000                          42.400  
R01  21142030.070    21142029.141                                   113016261.004   113016255.019                                          44.200          42.800                                  
R02  21209275.219    21209274.367    21209284.512    21209284.703   113176762.773   113176754.784    88026362.591    88026368.602          45.900          45.400          46.500          47.000  
R16  21647757.258    21647755.277    21647765.457    21647765.281   115638486.241   115638424.260    89940994.244    89941001.240          45.300          43.700          46.100          47.900  
R24  21766798.594    21766798.363    21766808.406    21766808.074   116396852.192   116396843.190    90530879.055    90530885.059          43.100          42.100          43.900          45.100  
R15  21571668.188    21571668.188    21571678.012    21571677.813   115272454.501   115272436.506    89656341.997    89656347.000          45.600          44.200          44.200          44.800  
R17  19854134.695    19854133.172    19854140.961    19854140.816   106243486.739   106243464.744    82633813.672    82633818.676          48.800          47.700          47.600          49.700  
R18  21837086.664    21837085.824    21837095.168    21837095.090   116567851.568   116567839.560    90663874.280    90663878.277          43.200          42.400          44.200          45.800  
E13  26332998.797    26333009.352    26333007.898    26333010.215   138380836.111   103336318.975   106032048.955   104684181.071          38.100          41.600          43.700          48.800  
E15  23581189.094    23581196.457    23581194.484    23581196.828   123919981.927    92537626.881    94951651.472    93744647.283          48.300          48.500          49.800          55.700  
E21  26792924.852    26792932.758    26792931.445    26792933.961   140797767.826   105141167.186   107883980.943   106512570.673          41.300          42.200          44.000          49.000  
E27  24379427.758    24379435.348    24379433.520    24379435.770   128114756.441    95670093.984    98165835.954    96917958.577          47.800          47.000          49.100          54.200  
E30  26121356.156    26121367.180    26121365.629    26121367.551   137268652.646   102505795.469   105179860.417   103842816.551          43.600          44.700          46.700          51.700  
E05  25654436.438    25654448.395    25654446.520    25654448.734   134814976.394   100673513.570   103299779.646   101986626.216          39.300          40.600          42.700          47.200  
C04  38606417.328    38606416.922   201033744.236   155452040.208          37.000          40.400  
C03  37583516.953    37583517.281   195707232.807   151333245.405          38.100          42.000  
C02  39064171.242    39064171.605   203417418.619   157295232.764          35.500          37.900  
C01  38138894.992    38138896.496   198599227.851   153569530.716          38.400          42.400  
C27  25550192.461                   133046565.073                          29.900                  
C30  22094507.531                   115051895.976                          48.400                  
C29  22558954.281                   117470392.028                          48.000                  
C20  24530121.391                   127734780.875                          42.100                  
C13  39070761.422    39070769.945   203451705.708   157321799.045          39.800          40.000  
> 2025 04 10 06 34 30.0000000  0 31
G22  22106777.641    22106784.676                   116171897.356    90523586.576                          46.100          33.000                  
G03  22407882.016                    22407893.320   117754211.828                    91756573.121          42.000                          44.700  
G04  23687756.719                    23687769.738   124480008.826                    96997457.981          37.100                          41.600  
G19  20014107.953    20014112.105                   105174847.156    81954442.129                          47.000          41.200                  
G06  21250161.211                    21250171.691   111670350.192                    87015882.561          47.000                          47.600  
G09  23991090.695                    23991108.004   126074038.679                    98239586.444          37.400                          42.400  
G17  20810382.250                    20810389.438   109359296.872                    85215064.285          46.300                          47.300  
G14  22990280.664                    22990292.664   120814742.318                    94141378.831          40.600                          42.800  
G11  23613268.555                    23613277.836   124088554.083                    96692417.101          40.300                          42.400  
R01  21142328.797    21142328.570                                   113017860.673   113017854.667                                          44.100          42.500                                  
R02  21206017.539    21206015.516    21206025.395    21206025.664   113159372.829   113159364.835    88012837.101    88012843.111          46.700          45.200          45.900          46.400  
R16  21646698.641    21646697.129    21646706.848    21646706.688   115632831.858   115632769.873    89936596.383    89936603.379          45.100          43.700          45.900          47.400  
R24  21768480.586    21768479.418    21768489.359    21768489.043   116405840.094   116405831.089    90537869.634    90537875.639          44.000          42.300          44.000          45.200  
R15  21574031.766    21574031.883    21574042.391    21574041.793   115285086.931   115285068.935    89666167.228    89666172.231          45.600          44.000          44.900          46.100  
R17  19853348.961    19853347.320    19853355.461    19853355.309   106239284.033   106239262.017    82630544.904    82630549.907          49.500          47.600          48.200          49.400  
R18  21834328.008    21834326.465    21834335.992    21834335.496   116553124.079   116553112.060    90652419.555    90652423.559          43.600          41.500          45.000          44.900  
E13  26330620.797    26330631.324    26330629.168    26330631.828   138368337.919   103326985.908   106022472.417   104674726.270          38.700          42.600          43.400          48.900  
E15  23580550.227    23580557.387    23580555.652    23580557.914   123916625.334    92535120.335    94949079.535    93742108.044          48.600          48.300          50.100          55.700  
E21  26790498.742    26790507.449    26790505.199    26790508.273   140785019.929   105131647.596   107874213.037   106502926.925          41.500          42.600          44.900          49.700  
E27  24379509.945    24379517.379    24379515.316    24379517.836   128115187.924    95670416.195    98166166.570    96918284.990          47.900          46.800          48.600          54.200  
E30  26123560.977    26123571.438    26123569.938    26123571.777   137280237.046   102514446.130   105188736.739   103851580.042          42.700          44.600          45.900          51.500  
E05  25652789.094    25652800.934    25652798.492    25652800.680   134806317.322   100667047.420   103293144.812   101980075.723          40.000          40.400          43.500          47.400  
C04  38605845.047    38605844.168   201030762.999   155449734.911          37.100          40.400  
C03  37582967.273    37582968.051   195704374.561   151331035.225          38.300          42.300  
C02  39063608.297    39063608.871   203414485.912   157292965.020          36.000          38.600  
C01  38138353.078    38138354.637   198596407.257   153567349.652          38.700          42.000  
C27  25552084.516                   133056414.541                          30.700                  
C30  22094901.750                   115053948.590                          48.300                  
C29  22556886.406                   117459626.427                          47.200                  
C20  24526579.000                   127716334.903                          42.300                  
C13  39069042.102    39069050.883   203442755.010   157314877.810          39.700          40.400  
> 2025 04 10 06 34 35.0000000  0 31
G22  22108636.188    22108643.695                   116181666.355    90531198.775                          45.600          32.400                  
G03  22410188.633                    22410199.918   117766335.175                    91766019.854          41.400                          44.300  
G04  23685353.359                    23685365.473   124467378.779                    96987616.438          37.700                          40.900  
G19  20012714.289    20012718.207                   105167521.613    81948733.914                          46.700          40.900                  
G06  21248379.695                    21248389.574   111660988.021                    87008587.359          47.300                          47.400  
G09  23987712.664                    23987731.316   126056295.918                    98225761.039          34.700                          41.500  
G17  20810749.008                    20810755.977   109361224.021                    85216565.949          46.500                          47.900  
G14  22993154.227                    22993166.355   120829842.781                    94153145.392          41.800                          43.000  
G11  23610265.609                    23610276.070   124072777.478                    96680123.650          39.700                          43.300  
R01  21142633.422    21142631.789                                   113019481.809   113019475.810                                          43.600          42.200                                  
R02  21202760.891    21202759.805    21202769.727    21202769.648   113141997.549   113141989.554    87999323.018    87999329.028          46.900          45.600          45.600          45.800  
R16  21645643.422    21645642.379    21645652.156    21645652.078   115627198.805   115627136.819    89932215.119    89932222.108          44.600          43.200          44.900          45.000  
R24  21770162.734    21770161.449    21770170.637    21770170.586   116414831.386   116414822.403    90544862.860    90544868.864          44.600          42.600          44.900          44.900  
R15  21576399.172    21576398.699    21576409.395    21576409.066   115297732.600   115297714.605    89676002.719    89676007.730          45.700          44.000          44.800          45.800  
R17  19852564.695    19852563.996    19852571.582    19852571.359   106235087.876   106235065.860    82627281.223    82627286.220          48.800          47.400          48.600          49.400  
R18  21831567.898    21831568.703    21831577.969    21831577.660   116538399.079   116538387.054    90640966.814    90640970.824          40.900          40.300          44.400          45.100  
E13  26328243.227    26328253.121    26328251.434    26328253.906   138355842.262   103317654.736   106012897.825   104665273.391          39.100          42.800          44.500          49.200  
E15  23579912.016    23579919.746    23579918.059    23579920.176   123913272.957    92532616.949    94946510.841    93739572.000          48.900          48.800          50.100          55.500  
E21  26788074.406    26788082.820    26788081.273    26788083.797   140772279.496   105122133.683   107864450.920   106493288.907          42.300          41.600          44.600          48.900  
E27  24379594.242    24379601.520    24379599.598    24379602.078   128115630.435    95670746.640    98166505.633    96918619.739          49.200          46.900          49.200          54.200  
E30  26125766.188    26125776.836    26125775.195    26125777.168   137291825.637   102523099.930   105197616.304   103860346.725          43.500          44.400          47.700          51.900  
E05  25651142.906    25651154.746    25651152.918    25651154.672   134797667.293   100660587.993   103286516.885   101973532.046          39.900          42.400          44.200          48.900  
C04  38605271.539    38605271.688   201027780.986   155447429.051          37.200          40.000  
C03  37582418.383    37582419.117   195701515.508   151328824.438          38.000          42.300  
C02  39063044.953    39063045.500   203411552.372   157290696.606          35.800          39.400  
C01  38137811.422    38137812.766   198593585.861   153565167.985          38.600          41.300  
C27  25553976.570                   133066265.828                          31.500                  
C30  22095296.953                   115056006.545                          48.200                  
C29  22554820.008                   117448864.213                          47.700                  
C20  24523037.992                   127697893.351                          43.100                  
C13  39067323.961    39067332.852   203433806.146   157307958.005          38.700          40.500  
> 2025 04 10 06 34 40.0000000  0 31
G22  22110497.766    22110504.773                   116191445.298    90538818.699                          45.200          32.800                  
G03  22412498.148                    22412509.395   117778468.129                    91775474.113          39.900                          43.200  
G04  23682951.406                    23682964.250   124454758.408                    96977782.403          38.700                          42.300  
G19  20011322.609    20011326.438                   105160207.271    81943034.426                          47.200          40.900                  
G06  21246599.680                    21246609.973   111651633.364                    87001298.014          47.300                          47.800  
G09  23984336.891                    23984354.805   126038556.250                    98211937.982          36.200                          41.000  
G17  20811117.359                    20811124.215   109363160.791                    85218075.123          47.200                          48.000  
G14  22996028.789                    22996040.879   120844947.870                    94164915.522          40.900                          42.500  
G11  23607264.477                    23607275.184   124057004.962                    96667833.407          41.000                          43.300  
R01  21142939.297    21142938.602                                   113021125.422   113021119.431                                          43.000          41.300                                  
R02  21199507.359    21199506.977    21199516.629    21199516.828   113124637.698   113124629.703    87985820.938    87985826.940          46.500          45.800          46.900          48.100  
R16  21644593.750    21644592.707    21644601.738    21644602.340   115621588.160   115621526.159    89927851.257    89927858.255          46.200          44.900          46.400          47.200  
R24  21771845.180    21771843.422    21771853.355    21771853.195   116423826.944   116423817.941    90551859.370    90551865.374          45.300          43.200          46.300          46.600  
R15  21578767.406    21578767.875    21578778.414    21578777.730   115310391.903   115310373.930    89685848.804    89685853.809          46.200          44.100          45.500          45.300  
R17  19851782.117    19851781.184    19851789.180    19851788.844   106230898.897   106230876.896    82624023.126    82624028.123          48.400          47.500          48.300          49.300  
R18  21828811.828    21828811.223    21828820.039    21828819.789   116523677.303   116523665.305    90629516.528    90629520.532          41.800          41.600          44.800          45.000  
E13  26325866.117    26325876.551    26325874.109    26325876.910   138343349.895   103308326.015   106003325.748   104655822.992          41.200          41.400          44.200          48.600  
E15  23579275.008    23579282.668    23579281.121    23579283.188   123909925.453    92530117.196    94943945.881    93737039.645          48.000          47.600          49.600          55.100  
E21  26785651.789    26785660.191    26785658.832    26785660.965   140759547.313   105112625.866   107854695.094   106483657.089          41.900          42.400          44.600          49.600  
E27  24379680.633    24379688.043    24379685.980    24379688.484   128116084.657    95671085.813    98166853.661    96918963.344          48.800          48.000          49.000          55.000  
E30  26127972.156    26127982.902    26127981.309    26127983.320   137303419.019   102531757.293   105206499.512   103869117.013          43.200          44.700          47.700          51.800  
E05  25649498.500    25649511.145    25649508.895    25649510.742   134789026.870   100654135.731   103279896.298   101966995.620          42.100          42.500          44.800          49.600  
C04  38604699.391    38604699.242   201024798.882   155445123.080          37.600          40.400  
C03  37581869.352    37581870.129   195698656.330   151326613.535          37.700          42.600  
C02  39062481.898    39062482.203   203408618.451   157288427.939          35.900          39.400  
C01  38137269.711    38137271.363   198590764.310   153562986.191          38.200          42.200  
C27  25555869.555                   133076119.169                          34.500                  
C30  22095693.125                   115058070.542                          48.300                  
C29  22552754.070                   117438106.104                          47.900                  
C20  24519497.180                   127679456.867                          43.800                  
C13  39065606.000    39065614.797   203424859.932   157301040.241          39.700          40.400  
> 2025 04 10 06 34 45.0000000  0 31
G22  22112360.234    22112367.641                   116201234.441    90546446.589                          45.700          33.600                  
G03  22414808.313                    22414819.684   117790610.999                    91784936.076          40.100                          43.200  
G04  23680551.813                    23680564.301   124442147.962                    96967956.107          37.000                          40.900  
G19  20009932.555    20009936.477                   105152904.426    81937343.887                          47.100          41.500                  
G06  21244820.828                    21244830.895   111642286.525                    86994014.795          46.700                          48.700  
G09  23980962.625                    23980979.270   126020819.813                    98198117.488          35.700                          40.800  
G17  20811487.586                    20811494.813   109365107.446                    85219591.979          46.800                          47.300  
G14  22998904.648                    22998916.348   120860057.831                    94176689.479          41.300                          43.000  
G11  23604264.242                    23604273.824   124041236.946                    96655546.655          40.200                          43.400  
R01  21143251.313    21143250.266                                   113022791.536   113022785.485                                          43.400          41.700                                  
R02  21196257.266    21196257.355    21196267.211    21196266.672   113107293.620   113107285.609    87972331.099    87972337.102          47.500          46.200          46.100          46.800  
R16  21643548.008    21643547.316    21643555.691    21643555.914   115615999.762   115615937.754    89923504.771    89923511.782          44.600          44.100          44.200          43.800  
R24  21773526.906    21773525.973    21773536.180    21773535.566   116432826.900   116432817.918    90558859.335    90558865.333          45.600          44.300          45.600          45.800  
R15  21581140.484    21581139.777    21581150.746    21581149.844   115323065.183   115323047.187    89695705.818    89695710.814          45.500          44.600          44.100          45.300  
R17  19851000.609    19850999.203    19851007.703    19851007.652   106226717.441   106226695.447    82620770.883    82620775.880          48.500          47.800          48.900          49.600  
R18  21826054.469    21826053.629    21826063.102    21826062.996   116508959.025   116508947.031    90618069.013    90618073.009          41.600          40.200          42.600          43.200  
E13  26323489.063    26323499.711    26323497.738    26323500.199   138330861.023   103298999.954   105993756.399   104646375.283          40.700          42.600          43.900          49.100  
E15  23578639.219    23578646.605    23578644.871    23578647.004   123906583.108    92527621.286    94941384.861    93734511.178          48.000          49.000          49.400          55.800  
E21  26783230.422    26783239.660    26783237.457    26783239.707   140746823.608   105103124.412   107844945.771   106474031.700          40.700          39.600          42.100          46.900  
E27  24379769.422    24379776.539    24379774.805    24379777.203   128116550.838    95671433.952    98167210.869    96919316.019          48.300          47.300          48.500          54.000  
E30  26130179.352    26130189.891    26130188.625    26130190.465   137315017.521   102540418.484   105215386.648   103877891.171          43.500          44.000          46.300          51.500  
E05  25647856.008    25647868.273    25647865.977    25647867.977   134780396.445   100647690.990   103273283.417   101960466.812          42.200          40.000          42.800          47.400  
C04  38604126.313    38604126.410   201021816.986   155442817.309          37.000          40.800  
C03  37581320.195    37581320.863   195695797.310   151324402.754          38.300          42.300  
C02  39061918.648    39061918.668   203405684.685   157286159.353          36.000          36.600  
C01  38136727.141    38136729.449   198587942.917   153560804.490          38.200          42.100  
C27  25557764.266                   133085974.729                          36.400                  
C30  22096091.133                   115060140.824                          48.500                  
C29  22550688.773                   117427352.367                          48.200                  
C20  24515957.703                   127661025.744                          43.800                  
C13  39063887.734    39063897.141   203415916.483   157294124.632          40.300          40.200  
> 2025 04 10 06 34 50.0000000  0 31
G22  22114224.805    22114232.363                   116211032.848    90554081.702                          44.200          31.800                  
G03  22417121.102                    22417132.359   117802762.914                    91794405.123          40.800                          44.600  
G04  23678154.398                    23678166.434   124429546.794                    96958137.021          39.400                          42.100  
G19  20008545.086    20008548.762                   105145612.270    81931661.688                          47.200          42.000                  
G06  21243044.289                    21243053.910   111632946.682                    86986736.976          47.900                          48.500  
G09  23977588.531                    23977605.012   126003085.868                    98184298.980          37.000                          40.700  
G17  20811859.688                    20811866.980   109367063.206                    85221115.949          46.500                          47.300  
G14  23001780.563                    23001792.340   120875171.728                    94188466.481          41.600                          42.200  
G11  23601264.844                    23601274.004   124025472.452                    96643262.664          41.700                          43.200  
R01  21143567.102    21143566.289                                   113024479.310   113024473.318                                          43.000          41.700                                  
R02  21193010.406    21193008.383    21193018.742    21193018.195   113089964.437   113089956.441    87958852.867    87958858.878          47.200          45.300          46.500          46.800  
R16  21642504.906    21642504.332    21642513.570    21642514.305   115610433.137   115610371.129    89919175.146    89919182.150          43.700          42.900          45.100          45.300  
R24  21775211.039    21775209.988    21775219.906    21775219.570   116441830.475   116441821.474    90565862.074    90565868.076          44.200          42.500          45.900          45.900  
R15  21583512.281    21583512.750    21583523.797    21583523.156   115335751.785   115335733.797    89705573.115    89705578.112          45.700          44.700          44.900          45.900  
R17  19850219.992    19850219.176    19850227.055    19850226.652   106222542.497   106222520.504    82617523.715    82617528.711          48.400          47.000          48.200          48.800  
R18  21823298.266    21823296.254    21823305.293    21823304.918   116494243.503   116494231.494    90606623.609    90606627.613          41.400          40.100          43.200          43.500  
E13  26321112.813    26321123.426    26321121.551    26321124.012   138318374.826   103289675.857   105984189.040   104636929.556          42.100          42.400          44.300          49.200  
E15  23578003.844    23578011.422    23578009.734    23578011.871   123903245.074    92525128.591    94938827.135    93731985.968          48.400          48.400          49.200          55.500  
E21  26780810.648    26780819.797    26780817.734    26780819.895   140734107.553   105093628.625   107835202.257   106464412.047          41.500          41.400          44.000          48.600  
E27  24379860.359    24379867.629    24379865.613    24379868.047   128117028.146    95671790.351    98167576.577    96919677.069          48.000          47.700          48.900          54.800  
E30  26132387.813    26132397.941    26132396.676    26132398.309   137326620.281   102549082.864   105224277.054   103886668.566          45.000          44.500          45.700          51.200  
E05  25646215.516    25646227.520    25646225.035    25646227.473   134771775.199   100641253.066   103266677.554   101953944.920          41.900          41.900          43.600          48.500  
C04  38603553.602    38603553.680   201018834.450   155440511.001          36.800          40.700  
C03  37580771.078    37580771.563   195692937.542   151322191.387          37.900          40.900  
C02  39061354.297    39061354.785   203402750.041   157283890.112          34.800          39.000  
C01  38136185.609    38136187.313   198585120.808   153558622.276          38.600          42.200  
C27  25559656.969                   133095831.699                          37.500                  
C30  22096489.195                   115062216.578                          47.900                  
C29  22548624.352                   117416602.136                          48.800                  
C20  24512419.078                   127642599.163                          44.800                  
C13  39062171.406    39062180.531   203406975.172   157287210.690          39.000          38.400  
> 2025 04 10 06 34 55.0000000  0 31
G22  22116091.094    22116098.848                   116220840.661    90561724.148                          46.000          33.600                  
G03  22419435.539                    22419446.176   117814923.859                    91803881.157          40.900                          45.600  
G04  23675757.703                    23675770.242   124416954.704                    96948325.076          37.900                          41.700  
G19  20007159.063    20007163.609                   105138330.813    81925987.830                          46.500          42.200                  
G06  21241267.836                    21241277.988   111623613.797                    86979464.625          48.100                          48.900  
G09  23974212.406                    23974231.305   125985354.569                    98170482.486          33.200                          39.900  
G17  20812234.094                    20812240.777   109369028.057                    85222646.991          46.900                          47.000  
G14  23004656.984                    23004668.941   120890289.791                    94200246.762          41.100                          44.700  
G11  23598265.648                    23598274.664   124009711.646                    96630981.544          39.900                          43.200  
R01  21143887.188    21143886.023                                   113026188.854   113026182.885                                          43.600          41.700                                  
R02  21189765.641    21189763.383    21189773.867    21189773.773   113072650.095   113072642.106    87945386.170    87945392.188          47.900          45.700          46.800          47.400  
R16  21641467.977    21641467.051    21641476.602    21641476.801   115604888.111   115604826.133    89914862.359    89914869.365          44.800          43.300          44.700          46.300  
R24  21776895.547    21776894.379    21776904.547    21776904.434   116450837.489   116450828.522    90572867.534    90572873.538          43.200          42.000          45.200          45.900  
R15  21585889.977    21585889.977    21585900.582    21585900.055   115348451.343   115348433.354    89715450.544    89715455.540          45.600          43.900          44.900          45.400  
R17  19849441.539    19849440.723    19849448.730    19849448.484   106218374.318   106218352.310    82614281.791    82614286.788          48.800          47.700          48.700          49.200  
R18  21820541.750    21820540.559    21820549.793    21820549.398   116479530.651   116479518.642    90595180.259    90595184.248          43.600          41.400          43.100          44.000  
E13  26318737.242    26318748.297    26318745.949    26318748.520   138305891.327   103280353.775   105974623.790   104627485.894          40.100          42.100          43.800          48.600  
E15  23577369.352    23577377.082    23577375.395    23577377.539   123899911.387    92522639.148    94936272.757    93729464.061          48.500          48.400          49.800          55.700  
E21  26778392.820    26778401.352    26778399.523    26778401.406   140721399.203   105084138.675   107825464.729   106454798.311          41.600          41.600          43.600          48.200  
E27  24379952.977    24379960.410    24379958.723    24379961.000   128117516.633    95672155.139    98167950.869    96920046.608          48.500          46.900          48.800          54.200  
E30  26134596.203    26134606.160    26134605.270    26134606.980   137338227.312   102557750.463   105233170.758   103895449.217          44.000          44.500          46.800          51.400  
E05  25644576.398    25644588.484    25644586.797    25644588.793   134763163.146   100634822.028   103260078.743   101947429.989          41.800          40.500          43.600          48.100  
C04  38602981.078    38602981.176   201015851.277   155438204.222          37.600          40.500  
C03  37580221.438    37580222.199   195690077.149   151319979.574          37.700          43.200  
C02  39060791.313    39060791.262   203399814.593   157281620.246          35.800          39.300  
C01  38135643.883    38135645.652   198582298.049   153556439.526          38.600          41.600  
C27  25561551.031                   133105690.108                          36.700                  
C30  22096889.141                   115064297.833                          47.500                  
C29  22546560.891                   117405855.483                          48.100                  
C20  24508881.242                   127624177.194                          43.200                  
C13  39060453.695    39060463.293   203398035.838   157280298.195          39.900          40.200  
> 2025 04 10 06 35  0.0000000  0 31
G22  22117959.391    22117966.660                   116230657.572    90569373.675                          45.900          33.700                  
G03  22421751.445                    22421762.156   117827093.578                    91813364.045          40.800                          45.200  
G04  23673364.117                    23673375.328   124404371.703                    96938520.171          37.900                          41.400  
G19  20005775.727    20005780.035                   105131059.876    81920322.158                          46.700          41.800                  
G06  21239493.250                    21239502.910   111614287.721                    86972197.558          47.900                          48.200  
G09  23970839.500                    23970857.555   125967625.558                    98156667.767          32.300                          39.000  
G17  20812609.734                    20812616.480   109371001.824                    85224184.999          46.900                          47.000  
G14  23007534.813                    23007547.160   120905411.576                    94212029.924          40.900                          44.000  
G11  23595266.328                    23595276.094   123993954.218                    96618703.039          39.600                          42.300  
R01  21144211.180    21144210.133                                   113027919.899   113027913.938                                          43.500          42.000                                  
R02  21186523.227    21186521.789    21186532.402    21186532.422   113055350.556   113055342.552    87931930.983    87931936.986          47.000          45.800          46.200          47.100  
R16  21640433.875    21640432.949    21640442.621    21640441.727   115599364.513   115599302.497    89910566.204    89910573.207          45.100          43.600          44.700          46.400  
R24  21778579.570    21778578.754    21778589.266    21778588.875   116459847.898   116459838.898    90579875.645    90579881.648          44.000          42.000          45.100          45.800  
R15  21588269.594    21588269.359    21588279.148    21588278.773   115361163.858   115361145.878    89725338.047    89725343.044          45.800          43.700          44.400          45.100  
R17  19848663.609    19848663.145    19848670.621    19848669.965   106214212.593   106214190.583    82611044.897    82611049.895          48.500          47.700          48.500          48.900  
R18  21817785.859    21817783.848    21817793.492    21817792.676   116464820.283   116464808.252    90583738.893    90583742.882          43.600          41.600          43.500          43.800  
E13  26316362.375    26316373.195    26316370.613    26316373.375   138293410.342   103271033.586   105965060.456   104618044.131          39.000          42.100          43.800          48.600  
E15  23576735.813    23576743.184    23576741.730    23576743.844   123896581.816    92520152.791    94933721.532    93726945.271          48.400          48.600          49.600          55.600  
E21  26775976.188    26775984.617    26775982.461    26775984.703   140708698.327   105074654.237   107815732.884   106445190.162          41.500          41.300          43.100          47.700  
E27  24380047.953    24380055.406    24380053.719    24380055.941   128118016.088    95672528.107    98168333.565    96920424.445          48.500          47.400          48.700          54.100  
E30  26136805.898    26136816.277    26136814.449    26136816.570   137349838.360   102566421.036   105242067.521   103904232.888          43.400          44.600          46.700          51.500  
E05  25642940.047    25642950.922    25642949.891    25642951.715   134754560.049   100628397.628   103253486.759   101940921.803          41.900          42.000          44.800          49.000  
C04  38602408.125    38602408.008   201012867.318   155435896.846          37.400          40.000  
C03  37579672.492    37579673.156   195687215.891   151317767.063          38.100          42.300  
C02  39060227.070    39060227.211   203396878.167   157279349.604          35.800          38.900  
C01  38135101.461    38135103.320   198579474.438   153554256.143          38.900          42.300  
C27  25563442.688                   133115549.844                          32.500                  
C30  22097290.016                   115066384.396                          48.300                  
C29  22544497.586                   117395112.194                          48.500                  
C20  24505344.891                   127605759.600                          44.300                  
C13  39058737.852    39058746.719   203389098.385   157273387.227          39.100          39.900  
> 2025 04 10 06 35  5.0000000  0 31
G22  22119829.297    22119836.680                   116240484.274    90577030.838                          44.700          32.600                  
G03  22424069.141                    22424079.281   117839272.818                    91822854.366          42.800                          45.600  
G04  23670971.477                    23670982.836   124391798.427                    96928722.829          35.800                          40.700  
G19  20004394.523    20004398.551                   105123800.079    81914665.176                          47.900          41.500                  
G06  21237720.078                    21237729.645   111604969.135                    86964936.324          46.600                          48.300  
G09  23967467.664                    23967483.988   125949899.576                    98142855.394          38.300                          42.200  
G17  20812986.781                    20812993.777   109372985.188                    85225730.479          46.300                          47.300  
G14  23010413.742                    23010425.098   120920537.801                    94223816.561          41.100                          44.100  
G11  23592267.953                    23592278.410   123978200.913                    96606427.761          40.400                          43.300  
R01  21144538.602    21144538.023                                   113029673.187   113029667.195                                          43.200          41.600                                  
R02  21183283.859    21183283.359    21183293.941    21183293.816   113038066.493   113038058.482    87918487.853    87918493.855          45.800          44.500          47.700          48.000  
R16  21639403.133    21639402.793    21639412.586    21639411.828   115593863.011   115593801.002    89906287.255    89906294.260          45.300          44.400          46.900          48.300  
R24  21780265.078    21780264.145    21780274.969    21780274.578   116468862.493   116468853.482    90586886.951    90586892.963          44.500          42.600          44.700          45.200  
R15  21590651.078    21590650.371    21590660.242    21590660.051   115373890.063   115373872.081    89735236.176    89735241.179          45.500          44.200          45.100          44.300  
R17  19847886.945    19847886.715    19847894.227    19847894.023   106210057.950   106210035.934    82607813.508    82607818.512          48.400          47.500          48.100          48.300  
R18  21815030.867    21815029.207    21815038.262    21815037.879   116450113.148   116450101.132    90572300.023    90572304.026          44.600          42.700          46.200          47.000  
E13  26313988.016    26313998.922    26313996.531    26313999.066   138280932.486   103261715.703   105955499.502   104608604.713          41.900          43.300          45.100          50.100  
E15  23576103.242    23576110.801    23576109.066    23576111.289   123893257.025    92517669.994    94931173.972    93724430.091          48.400          48.200          49.100          55.500  
E21  26773560.195    26773569.109    26773567.563    26773569.563   140696005.625   105065175.925   107806007.307   106435588.221          41.000          41.500          43.200          48.400  
E27  24380145.227    24380152.938    24380151.387    24380153.445   128118527.147    95672909.741    98168725.169    96920811.062          48.300          47.000          49.000          54.700  
E30  26139016.797    26139026.367    26139024.539    26139026.953   137361454.188   102575095.166   105250967.932   103913020.155          44.900          43.700          46.200          50.900  
E05  25641303.766    25641315.047    25641314.719    25641316.383   134745966.618   100621980.504   103246902.228   101934420.971          39.600          39.600          42.800          47.100  
C04  38601834.547    38601835.113   201009883.194   155433589.318          37.700          41.900  
C03  37579122.805    37579123.453   195684354.377   151315554.370          37.600          42.100  
C02  39059662.836    39059663.840   203393941.377   157277078.708          35.200          38.200  
C01  38134558.961    38134560.629   198576650.613   153552072.594          39.000          41.600  
C27  25565335.961                   133125411.542                          30.300                  
C30  22097691.648                   115068476.933                          48.800                  
C29  22542435.195                   117384372.943                          47.900                  
C20  24501808.727                   127587347.075                          44.300                  
C13  39057021.992    39057031.004   203380163.416   157266478.145          40.000          39.200  
> 2025 04 10 06 35 10.0000000  0 32
G22  22121700.195    22121708.512                   116250320.532    90584695.434                          44.500          31.700                  
G03  22426389.047                    22426399.730   117851461.343                    91832351.908          41.100                          43.600  
G04  23668579.625                    23668592.477   124379234.593                    96918932.822          39.200                          42.500  
G19  20003014.938    20003019.230                   105116551.314    81909016.782                          47.500          42.000                  
