     3.04           OBSERVATION DATA    M (MIXED)           RINEX VERSION / TYPE
BLANK OR G = GPS, R = GLONASS, C = BDS, E = GAL, J = QZSS, M = MIXEDCOMMENT             
HGO                 HITARGET            20250510 112545 UTC PGM / RUN BY / DATE 
2222                                                        MARKER NAME         
                                                            MARKER NUMBER       
whoever             HITARGET                                OBSERVER / AGENCY   
10020463            iRTK2                                   REC # / TYPE / VERS 
1                   HITIRTK2-2                              ANT # / TYPE        
 -2623881.1459  3976994.3576  4226086.3025                  APPROX POSITION XYZ 
------------------------------------------------------------COMMENT             
*** Antenna height is from mark to ANTENNA Phase Center.    COMMENT             
------------------------------------------------------------COMMENT             
        1.5689        0.0000        0.0000                  ANTENNA: DELTA H/E/N
G    9 C1C C2W C2X L1C L2W L2X S1C S2W S2X                  SYS / # / OBS TYPES 
R   12 C1C C1P C2P C2C L1C L1P L2P L2C S1C S1P S2P S2C      SYS / # / OBS TYPES 
E   12 C1X C5X C7X C8X L1X L5X L7X L8X S1X S5X S7X S8X      SYS / # / OBS TYPES 
C    6 C2I C7I L2I L7I S2I S7I                              SYS / # / OBS TYPES 
     5.000                                                  INTERVAL            
  2025     4    10     6    34   30.0000000     GPS         TIME OF FIRST OBS   
  2025     4    10     6    55   25.0000000     GPS         TIME OF LAST OBS    
     0                                                      RCV CLOCK OFFS APPL 
    18                                                      LEAP SECONDS        
                                                            END OF HEADER       
> 2025 04 10 06 34 30.0000000  0 22
R01  21219644.531    21219642.664                                   113431159.793   113431140.802                                          44.100          42.500                                  
R02  21283338.430    21283337.109    21283346.863    21283346.785   113571977.390   113571966.412    88333753.008    88333760.019          47.500          45.700          45.800          46.500  
R18  21911661.094    21911659.434    21911668.629    21911668.203   116965934.597   116965917.591    90973492.064    90973496.068          46.300          44.600          46.200          47.000  
R17  19930671.688    19930671.223    19930678.410    19930678.023   106653045.401   106653034.411    82952366.522    82952370.524          51.500          49.800          49.200          49.500  
R16  21724028.508    21724028.285    21724037.121    21724037.109   116045870.514   116045849.521    90257887.997    90257895.009          46.000          44.700          46.200          46.000  
R15  21651370.672    21651370.082    21651380.055    21651379.535   115698344.830   115698330.841    89987592.563    89987597.568          47.500          46.300          46.800          46.900  
R24  21845794.547    21845792.906    21845803.430    21845803.395   116819276.337   116819262.352    90859424.851    90859430.847          45.800          43.900          44.100          45.600  
E13  26407958.797    26407968.891    26407966.500    26407968.711   138774761.243   103630504.713   106333908.271   104982182.601          42.600          43.400          44.100          49.300  
E30  26200893.984    26200904.414    26200901.695    26200904.328   137686619.456   102817967.291   105500165.485   104159071.498          45.000          45.100          45.900          51.400  
E15  23657876.969    23657884.207    23657882.285    23657884.527   124322982.892    92838577.713    95260452.889    94049506.407          48.200          48.600          49.800          55.600  
E21  26867828.047    26867836.027    26867834.059    26867836.258   141191388.153   105435159.230   108185631.802   106810357.623          42.800          42.800          43.600          49.200  
E05  25730102.266    25730114.336    25730111.336    25730113.852   135212607.912   100970492.782   103604496.779   102287505.388          43.100          40.400          42.100          47.000  
E27  24456843.484    24456850.086    24456848.727    24456850.730   128521577.485    95973922.955    98477584.951    97225712.065          48.200          47.300          48.300          54.000  
C04  38683167.141    38683166.734   201433401.998   155761080.658          36.700          41.800  
C03  37660301.477    37660301.586   196107074.058   151642426.536          39.000          42.100  
C02  39140946.492    39140946.477   203817192.993   157604371.111          34.300          38.600  
C01  38215680.531    38215680.398   198999072.155   153878708.837          39.700          41.800  
C30  22172221.406                   115456572.444                          48.600                  
C29  22634216.188                   117862296.993                          47.200                  
C27  25629400.992                   133459001.873                          40.900                  
C20  24603908.922                   128119018.232                          44.600                  
C13  39146379.281    39146387.648   203845474.200   157626286.788          40.900          40.900  
> 2025 04 10 06 34 35.0000000  0 31
G17  20887292.875                    20887298.867   109763470.056                    85530001.612          47.200                          47.300  
G11  23686825.266                    23686834.641   124475142.097                    96993627.101          42.500                          45.000  
G14  23069709.977                    23069720.605   121232142.061                    94466630.121          42.400                          43.700  
G22  22185191.672    22185199.168                   116583973.359    90844681.661                          44.100          32.900                  
G03  22486725.273                                   118168552.347                                          41.100                                  
G19  20089261.148    20089265.254                   105569775.372    82262186.540                          46.800          41.800                  
G06  21324933.422                    21324942.301   112063297.824                    87322062.780          48.600                          46.800  
G09  24064258.383                                   126458509.626                                          39.400                                  
G04  23761891.125                                   124869571.525                                          38.600                                  
R01  21219169.281    21219168.234                                   113428620.165   113428601.167                                          44.300          42.300                                  
R02  21279304.422    21279303.102    21279312.266    21279312.402   113550448.669   113550437.669    88317008.479    88317015.489          48.800          46.900          45.700          46.500  
R18  21908123.430    21908122.707    21908131.457    21908131.188   116947054.652   116947037.662    90958807.676    90958811.673          45.800          43.700          45.600          46.000  
R17  19929109.695    19929108.645    19929115.988    19929115.473   106644684.073   106644673.063    82945863.264    82945867.267          51.900          50.300          48.900          49.900  
R16  21722196.391    21722195.816    21722204.906    21722204.406   116036079.668   116036058.668    90250272.918    90250279.938          46.000          45.600          47.200          46.800  
R15  21652958.555    21652958.199    21652968.809    21652968.090   115706831.278   115706817.267    89994193.122    89994198.126          47.100          45.700          46.400          46.700  
R24  21846696.820    21846696.590    21846705.988    21846706.082   116824105.422   116824091.428    90863180.761    90863186.766          45.700          43.900          44.400          44.700  
E13  26404802.500    26404812.629    26404810.285    26404812.684   138758175.335   103618119.107   106321199.575   104969635.450          41.900          43.100          44.200          49.400  
E30  26202321.016    26202331.043    26202328.137    26202331.125   137694117.784   102823566.660   105505910.927   104164743.903          45.400          45.300          45.900          51.200  
E15  23656460.570    23656467.938    23656465.969    23656468.195   124315540.209    92833019.865    95254750.053    94043876.063          48.000          48.500          50.300          55.600  
E21  26864625.188    26864633.348    26864631.004    26864633.422   141174557.501   105422590.900   108172735.605   106797625.362          42.700          42.200          42.800          48.400  
E05  25727677.922    25727689.785    25727687.301    25727689.281   135199867.586   100960978.920   103594734.720   102277867.428          41.900          39.900          41.800          46.600  
E27  24456149.125    24456156.141    24456154.496    24456156.480   128517929.756    95971199.003    98474789.939    97222952.575          48.000          47.000          48.500          54.100  
C04  38681816.133    38681815.902   201426366.912   155755640.704          36.900          42.600  
C03  37658974.555    37658974.258   196100161.923   151637081.630          38.700          41.800  
C02  39139605.188    39139605.496   203810206.346   157598968.538          36.400          40.200  
C01  38214359.742    38214360.324   198992197.652   153873393.031          39.400          42.300  
C30  22171838.266                   115454577.326                          48.000                  
C29  22631371.313                   117847481.676                          47.400                  
C27  25630515.180                   133464800.079                          41.800                  
C20  24599589.195                   128096523.579                          44.600                  
C13  39143882.516    39143890.879   203832472.256   157616232.888          40.300          41.000  
> 2025 04 10 06 34 40.0000000  0 31
G17  20886883.188                    20886889.887   109761316.679                    85528323.606          47.300                          47.300  
G11  23683045.156                    23683056.137   124455279.417                    96978149.727          41.700                          44.300  
G14  23071805.758                    23071817.688   121243156.972                    94475213.138          42.100                          43.900  
G22  22186274.273    22186281.785                   116589662.135    90849114.451                          43.900          33.700                  
G03  22488255.820                    22488265.508   118176595.145                    92085672.266          41.000                          43.800  
G19  20087091.023    20087095.258                   105558370.815    82253299.866                          47.700          40.900                  
G06  21322374.773                    21322384.668   112049852.973                    87311586.228          47.300                          47.600  
G09  24060104.852                    24060120.688   126436679.710                    98522137.679          39.800                          42.100  
G04  23758711.461                    23758724.395   124852860.944                    97287981.681          37.500                          39.200  
R01  21218698.242    21218697.313                                   113426103.105   113426084.128                                          44.300          43.000                                  
R02  21275272.984    21275271.430    21275281.094    21275281.203   113528935.462   113528924.455    88300275.975    88300282.979          48.100          47.000          46.600          46.200  
R18  21904587.773    21904586.582    21904595.754    21904595.031   116928178.051   116928161.047    90944125.895    90944129.884          44.100          42.900          46.500          46.600  
R17  19927548.617    19927547.332    19927554.828    19927554.715   106636330.022   106636319.020    82939365.674    82939369.669          51.300          49.500          48.300          49.100  
R16  21720367.148    21720367.629    21720376.047    21720375.660   116026311.315   116026290.324    90242675.303    90242682.308          46.700          45.900          46.000          46.600  
R15  21654548.648    21654548.176    21654559.344    21654558.457   115715331.422   115715317.433    90000804.358    90000809.355          46.100          45.600          46.500          47.000  
R24  21847602.891    21847601.605    21847610.461    21847610.348   116828938.849   116828924.862    90866940.106    90866946.110          45.600          44.300          42.800          43.800  
E13  26401646.859    26401657.180    26401654.180    26401657.121   138741592.695   103605736.041   106308493.455   104957090.854          42.500          42.500          43.200          49.000  
E30  26203748.906    26203759.031    26203756.219    26203759.121   137701621.042   102829169.707   105511660.144   104170420.033          44.600          44.800          46.800          51.700  
E15  23655045.305    23655052.523    23655050.551    23655052.891   124308102.480    92827465.707    95249050.997    94038249.459          49.100          48.200          49.400          55.100  
E21  26861423.883    26861432.176    26861429.691    26861432.270   141157735.141   105410028.753   108159845.741   106784899.353          42.800          41.900          42.900          48.200  
E05  25725255.422    25725266.699    25725264.965    25725266.797   135187137.068   100951472.432   103584980.236   102268236.943          40.400          39.700          40.200          45.300  
E27  24455457.242    24455464.199    24455462.559    24455464.563   128514293.821    95968483.846    98472003.962    97220202.009          48.400          48.000          49.400          54.800  
C04  38680464.805    38680465.070   201419331.818   155750200.720          37.600          41.800  
C03  37657646.680    37657646.648   196093249.756   151631736.715          38.100          41.700  
C02  39138262.281    39138263.496   203803219.516   157593565.873          34.800          41.400  
C01  38213039.602    38213040.051   198985323.112   153868077.212          39.500          41.600  
C30  22171456.398                   115452588.313                          47.600                  
C29  22628526.688                   117832670.535                          47.900                  
C27  25631628.867                   133470600.375                          39.900                  
C20  24595269.445                   128074034.089                          44.000                  
C13  39141386.039    39141394.273   203819473.062   157606181.091          41.100          40.200  
> 2025 04 10 06 34 45.0000000  0 31
G17  20886475.289                    20886481.813   109759172.630                    85526652.924          47.800                          47.400  
G11  23679265.578                    23679276.250   124435420.652                    96962675.329          40.100                          45.000  
G14  23073902.094                    23073914.750   121254176.233                    94483799.506          41.700                          42.600  
G22  22187358.695    22187366.320                   116595360.593    90853554.770                          44.300          33.100                  
G03  22489787.953                    22489798.676   118184647.327                    92091946.656          41.300                          43.800  
G19  20084923.195    20084926.820                   105546977.250    82244421.766                          47.700          41.100                  
G06  21319817.414                    21319827.141   112036415.376                    87301115.387          47.400                          48.000  
G09  24055951.602                    24055967.227   126414852.639                    98505129.701          39.000                          40.300  
G04  23755533.109                    23755545.289   124836159.787                    97274967.852          38.600                          40.300  
R01  21218232.289    21218231.125                                   113423608.046   113423589.048                                          44.300          43.600                                  
R02  21271244.156    21271242.953    21271252.738    21271253.117   113507437.432   113507426.431    88283555.326    88283562.329          47.500          45.700          47.000          47.200  
R18  21901051.602    21901050.762    21901060.781    21901060.004   116909304.386   116909287.385    90929446.377    90929450.382          44.100          42.000          46.800          47.300  
R17  19925988.906    19925987.148    19925994.727    19925994.289   106627982.962   106627971.959    82932873.523    82932877.512          51.700          49.500          48.300          48.400  
R16  21718542.195    21718542.441    21718551.172    21718551.031   116016564.770   116016543.771    90235094.631    90235101.620          45.500          44.400          47.000          47.300  
R15  21656141.375    21656141.141    21656151.801    21656151.094   115723845.048   115723831.054    90007426.031    90007431.036          46.700          45.200          45.800          46.000  
R24  21848506.102    21848505.285    21848514.691    21848514.563   116833776.184   116833762.192    90870702.471    90870708.469          44.700          43.300          42.900          44.100  
E13  26398491.859    26398502.430    26398498.961    26398502.129   138725013.129   103593355.154   106295789.604   104944548.488          41.600          43.400          44.400          50.100  
E30  26205177.102    26205187.449    26205184.777    26205187.730   137709128.853   102834776.175   105517412.873   104176099.634          43.400          44.600          45.700          51.700  
E15  23653630.953    23653638.086    23653636.352    23653638.469   124300669.376    92821915.019    95243355.512    94032626.372          49.300          47.800          49.300          55.100  
E21  26858223.688    26858232.633    26858230.336    26858232.617   141140920.747   105397472.515   108146961.950   106772179.335          42.800          41.600          43.100          48.300  
E05  25722833.578    25722845.848    25722844.113    25722846.031   135174415.996   100941972.923   103575232.910   102258613.529          40.500          39.400          41.700          46.100  
E27  24454767.188    24454774.801    24454772.781    24454774.922   128510669.305    95965777.219    98469226.723    97217460.079          48.000          48.000          48.800          54.900  
C04  38679113.680    38679113.586   201412296.434   155744760.531          36.000          42.300  
C03  37656318.781    37656319.406   196086337.167   151626391.450          38.600          41.800  
C02  39136920.828    39136921.301   203796232.167   157588162.852          35.000          40.800  
C01  38211719.563    38211720.207   198978448.199   153862761.099          40.200          40.500  
C30  22171075.500                   115450605.076                          47.900                  
C29  22625683.391                   117817863.217                          48.200                  
C27  25632742.797                   133476402.410                          42.400                  
C20  24590951.766                   128051549.415                          43.400                  
C13  39138890.195    39138898.688   203806476.116   157596131.035          41.800          40.100  
> 2025 04 10 06 34 50.0000000  0 31
G17  20886068.586                    20886075.242   109757037.269                    85524989.000          47.800                          47.600  
G11  23675487.555                    23675497.707   124415565.048                    96947203.461          39.900                          45.400  
G14  23076000.813                    23076012.277   121265199.075                    94492388.711          41.300                          43.500  
G22  22188445.492    22188453.016                   116601067.989    90858002.091                          44.800          33.400                  
G03  22491322.750                    22491333.035   118192708.048                    92098227.711          42.000                          44.100  
G19  20082756.633    20082760.754                   105535593.957    82235551.659                          47.900          40.500                  
G06  21317262.164                    21317271.582   112022984.322                    87290649.681          47.600                          47.300  
G09  24051797.664                    24051813.898   126393027.584                    98488123.251          39.800                          42.000  
G04  23752356.820                    23752368.367   124819467.449                    97261960.844          39.300                          40.600  
R01  21217768.516    21217767.586                                   113421134.215   113421115.232                                          44.500          43.200                                  
R02  21267218.375    21267217.523    21267227.199    21267226.465   113485953.923   113485942.915    88266845.941    88266852.952          48.100          46.700          46.800          47.200  
R18  21897516.234    21897516.098    21897524.871    21897524.102   116890432.995   116890416.003    90914768.695    90914772.700          44.300          43.500          45.500          46.700  
R17  19924429.969    19924428.563    19924436.027    19924435.828   106619641.980   106619630.992    82926386.081    82926390.092          51.600          49.000          48.800          48.700  
R16  21716722.570    21716722.348    21716729.941    21716730.453   116006839.499   116006818.508    90227530.560    90227537.563          47.200          46.200          46.600          46.600  
R15  21657737.539    21657737.066    21657746.590    21657746.512   115732371.508   115732357.520    90014057.668    90014062.672          46.600          44.300          45.400          45.900  
R24  21849410.930    21849411.168    21849420.102    21849419.965   116838616.669   116838602.678    90874467.243    90874473.255          46.400          44.700          44.200          45.300  
E13  26395337.367    26395348.008    26395344.820    26395347.855   138708435.795   103580975.999   106283087.533   104932007.872          43.300          44.400          44.400          50.500  
E30  26206606.906    26206616.582    26206614.656    26206617.023   137716640.513   102840385.539   105523168.563   104181782.161          45.700          44.100          45.600          51.200  
E15  23652217.531    23652224.379    23652222.598    23652224.699   124293240.204    92816367.254    95237663.023    94027006.245          49.100          48.100          49.800          56.000  
E21  26855025.789    26855034.277    26855031.887    26855034.059   141124113.607   105384921.781   108134083.782   106759464.888          42.400          40.900          42.300          47.700  
E05  25720414.367    25720426.836    25720424.816    25720426.887   135161703.536   100932479.895   103565492.224   102248996.665          40.600          40.000          41.900          46.600  
E27  24454079.766    24454086.641    24454085.188    24454087.180   128507055.543    95963078.647    98466457.747    97214726.302          48.300          46.800          47.200          53.900  
C04  38677762.219    38677762.313   201405259.979   155739319.476          36.300          41.600  
C03  37654992.211    37654991.898   196079423.542   151621045.402          39.500          41.700  
C02  39135578.867    39135579.699   203789243.643   157582758.863          34.500          40.900  
C01  38210399.078    38210399.367   198971572.220   153857444.131          39.800          40.400  
C30  22170695.844                   115448626.890                          49.100                  
C29  22622840.367                   117803059.038                          47.900                  
C27  25633857.688                   133482205.538                          43.300                  
C20  24586634.914                   128029068.863                          44.100                  
C13  39136394.602    39136402.809   203793480.872   157586082.301          41.200          39.400  
> 2025 04 10 06 34 55.0000000  0 31
G17  20885664.242                    20885671.145   109754911.660                    85523332.684          47.300                          47.900  
G11  23671710.289                    23671720.449   124395713.712                    96931734.908          40.100                          44.700  
G14  23078098.688                    23078110.477   121276226.606                    94500981.561          42.200                          43.900  
G22  22189533.563    22189540.777                   116606785.345    90862457.165                          45.500          33.500                  
G03  22492857.852                    22492867.555   118200778.512                    92104516.347          42.200                          43.800  
G19  20080593.227    20080596.719                   105524222.021    82226690.412                          47.500          40.800                  
G06  21314707.633                    21314717.457   112009560.941                    87280189.883          46.900                          47.500  
G09  24047645.258                    24047661.566   126371205.691                    98471119.263          40.000                          42.100  
G04  23749182.305                    23749194.250   124802784.919                    97248961.495          39.000                          40.500  
R01  21217309.797    21217308.867                                   113418682.824   113418663.833                                          44.400          43.000                                  
R02  21263194.719    21263193.047    21263203.238    21263203.285   113464485.933   113464474.934    88250148.649    88250155.652          48.200          45.900          46.500          47.200  
R18  21893983.891    21893981.762    21893990.066    21893989.480   116871565.029   116871548.032    90900093.620    90900097.624          45.500          43.800          45.900          47.300  
R17  19922872.203    19922871.504    19922879.023    19922878.246   106611308.421   106611297.433    82919904.431    82919908.433          51.000          49.700          49.500          49.100  
R16  21714906.180    21714905.957    21714913.828    21714914.254   115997136.496   115997115.512    90219983.750    90219990.746          48.100          46.300          45.400          45.600  
R15  21659336.617    21659335.676    21659345.105    21659344.660   115740911.614   115740897.624    90020700.004    90020705.016          47.800          44.800          45.000          46.300  
R24  21850316.859    21850315.809    21850325.367    21850325.469   116843461.316   116843447.353    90878235.297    90878241.294          46.200          43.900          44.400          44.600  
E13  26392183.398    26392193.820    26392190.910    26392193.762   138691861.814   103568599.327   106270387.971   104919469.758          43.400          43.900          44.200          50.100  
E30  26208037.336    26208046.977    26208045.102    26208047.473   137724157.063   102845998.526   105528927.980   104187468.363          44.900          44.100          45.900          50.800  
E15  23650804.539    23650811.535    23650809.848    23650811.859   124285815.993    92810823.208    95231974.352    94021389.886          48.600          48.000          49.900          55.600  
E21  26851829.148    26851837.359    26851835.156    26851837.594   141107314.769   105372377.194   108121211.956   106746756.678          41.600          41.400          42.700          47.600  
E05  25717998.672    25718009.008    25718007.367    25718009.793   135149000.980   100922994.245   103555759.138   102239387.298          40.800          41.400          43.100          47.500  
E27  24453394.484    24453401.449    24453399.387    24453401.766   128503453.583    95960388.859    98463697.794    97212001.435          48.300          47.500          48.200          54.000  
C04  38676411.266    38676410.777   201398223.483   155733878.418          37.400          41.700  
C03  37653663.891    37653664.043   196072509.825   151615699.288          38.800          41.400  
C02  39134236.727    39134237.438   203782254.909   157577354.748          34.300          40.700  
C01  38209078.305    38209079.047   198964696.146   153852127.135          39.600          42.100  
C30  22170316.734                   115446654.847                          48.800                  
C29  22619998.039                   117788259.062                          47.100                  
C27  25634972.930                   133488010.702                          41.700                  
C20  24582318.898                   128006593.624                          45.000                  
C13  39133899.219    39133907.547   203780488.300   157576035.650          40.700          39.400  
> 2025 04 10 06 35  0.0000000  0 31
G17  20885261.789                    20885268.840   109752796.616                    85521684.591          47.200                          47.700  
G11  23667933.719                    23667943.652   124375867.446                    96916270.274          41.600                          44.700  
G14  23080198.641                    23080210.078   121287259.646                    94509578.675          40.600                          43.000  
G22  22190623.469    22190630.527                   116612513.436    90866920.590                          46.300          33.700                  
G03  22494395.180                    22494405.961   118208859.480                    92110813.216          42.500                          44.700  
G19  20078431.008    20078434.684                   105512862.250    82217838.642                          47.500          40.900                  
G06  21312154.805                    21312164.531   111996146.031                    87269736.715          48.100                          47.900  
G09  24043493.078                    24043509.117   126349387.871                    98454118.479          38.600                          40.900  
G04  23746009.820                    23746021.309   124786113.051                    97235970.503          40.300                          42.200  
R01  21216854.789    21216855.621                                   113416254.650   113416235.637                                          43.900          43.100                                  
R02  21259174.492    21259173.758    21259183.824    21259183.668   113443034.371   113443023.378    88233464.097    88233471.101          48.000          46.200          46.100          46.600  
R18  21890447.188    21890447.520    21890455.699    21890455.477   116852701.192   116852684.196    90885421.710    90885425.692          45.100          43.700          45.800          47.200  
R17  19921316.281    19921315.348    19921322.742    19921322.586   106602983.012   106602972.016    82913429.118    82913433.113          50.600          49.400          48.500          49.500  
R16  21713094.563    21713094.105    21713102.234    21713102.164   115987456.604   115987435.590    90212454.941    90212461.939          48.500          46.100          45.100          45.400  
R15  21660936.672    21660936.789    21660946.813    21660946.395   115749466.348   115749452.359    90027353.663    90027358.675          48.600          46.100          45.300          46.000  
R24  21851224.469    21851223.535    21851232.633    21851232.703   116848311.046   116848297.053    90882007.292    90882013.283          46.000          44.300          45.000          45.300  
E13  26389030.141    26389040.363    26389038.254    26389040.477   138675291.986   103556225.771   106257691.624   104906934.806          42.700          43.600          45.100          50.000  
E30  26209468.547    26209478.516    26209476.500    26209479.070   137731679.366   102851615.783   105534691.781   104193158.889          45.100          44.400          46.300          51.200  
E15  23649392.602    23649399.762    23649397.793    23649400.105   124278397.570    92805283.491    95226290.113    94015777.904          48.800          48.500          49.300          55.300  
E21  26848634.352    26848642.531    26848640.141    26848642.578   141090525.126   105359839.434   108108347.143   106734055.391          41.900          41.800          44.200          48.800  
E05  25715583.297    25715593.797    25715592.250    25715594.570   135136309.063   100913516.559   103546034.186   102229785.976          42.400          40.700          42.600          47.300  
E27  24452711.453    24452718.648    24452716.398    24452718.863   128499864.241    95957708.496    98460947.520    97209286.120          48.000          46.900          48.600          54.200  
C04  38675060.227    38675060.176   201391187.889   155728438.066          36.900          41.800  
C03  37652336.398    37652336.844   196065596.923   151610353.793          39.300          42.100  
C02  39132894.523    39132895.465   203775266.828   157571951.094          35.000          40.500  
C01  38207758.234    38207758.422   198957820.902   153846810.768          39.600          41.300  
C30  22169939.563                   115444689.739                          48.400                  
C29  22617157.078                   117773464.114                          47.600                  
C27  25636087.516                   133493818.870                          43.900                  
C20  24578003.625                   127984124.320                          44.900                  
C13  39131404.930    39131413.379   203767499.214   157565991.666          41.700          40.200  
> 2025 04 10 06 35  5.0000000  0 31
G17  20884860.500                    20884867.895   109750690.305                    85520043.331          47.000                          47.700  
G11  23664157.898                    23664167.281   124356024.414                    96900808.186          41.300                          44.500  
G14  23082298.742                    23082310.645   121298296.244                    94518178.579          42.900                          43.400  
G22  22191715.063    22191722.133                   116618250.478    90871391.017                          46.100          33.900                  
G03  22495934.266                    22495945.246   118216949.032                    92117116.728          42.000                          44.300  
G19  20076271.273    20076275.016                   105501512.774    82208994.894                          47.500          41.300                  
G06  21309602.984                    21309613.012   111982737.688                    87259288.653          47.200                          48.000  
G09  24039341.219                    24039358.465   126327572.186                    98437119.332          37.300                          40.400  
G04  23742838.383                    23742850.883   124769450.087                    97222986.346          39.400                          41.700  
R01  21216405.695    21216404.648                                   113413847.838   113413828.830                                          43.200          42.500                                  
R02  21255157.453    21255156.484    21255166.367    21255166.133   113421597.481   113421586.481    88216790.997    88216798.001          47.600          46.000          46.300          47.300  
R18  21886913.875    21886913.855    21886922.426    21886922.277   116833839.681   116833822.671    90870751.672    90870755.661          45.200          44.100          45.600          46.600  
R17  19919761.805    19919760.520    19919767.930    19919767.848   106594663.793   106594652.798    82906958.611    82906962.615          50.900          50.200          48.500          49.500  
R16  21711287.391    21711285.762    21711294.121    21711293.859   115977797.918   115977776.919    90204942.651    90204949.647          48.600          46.500          46.500          46.300  
R15  21662539.727    21662540.313    21662549.871    21662549.168   115758033.946   115758019.943    90034017.334    90034022.348          47.900          46.900          45.700          46.200  
R24  21852131.813    21852130.645    21852140.086    21852140.063   116853164.046   116853150.080    90885781.829    90885787.818          45.600          43.900          45.000          46.400  
E13  26385877.297    26385887.402    26385885.574    26385887.734   138658724.437   103543853.927   106244997.040   104894401.589          42.700          43.900          45.000          50.500  
E30  26210900.586    26210910.406    26210908.906    26210911.117   137739205.532   102857235.968   105540458.573   104198852.377          45.200          44.100          45.800          51.300  
E15  23647981.625    23647989.047    23647986.938    23647989.301   124270983.094    92799746.697    95220608.894    94010168.901          49.100          48.200          49.000          55.500  
E21  26845440.688    26845448.691    26845446.348    26845448.828   141073742.754   105347307.164   108095487.938   106721359.661          42.100          42.300          43.600          48.400  
E05  25713169.992    25713179.676    25713178.504    25713181.086   135123625.912   100904045.377   103536315.945   102220191.267          42.500          41.000          42.400          47.600  
E27  24452030.258    24452037.699    24452035.352    24452037.945   128496285.657    95955036.176    98458205.480    97206578.937          48.200          47.300          48.200          54.100  
C04  38673709.188    38673708.930   201384151.255   155722996.891          36.600          42.100  
C03  37651008.352    37651008.273   196058682.971   151605007.488          38.900          41.300  
C02  39131552.781    39131553.402   203768277.563   157566546.571          34.500          40.000  
C01  38206437.898    38206438.031   198950944.575   153841493.563          39.800          40.900  
C30  22169563.203                   115442729.762                          49.000                  
C29  22614316.250                   117758672.348                          47.100                  
C27  25637203.453                   133499628.096                          43.300                  
C20  24573689.008                   127961659.301                          44.700                  
C13  39128910.992    39128919.473   203754511.778   157555948.960          42.100          39.900  
> 2025 04 10 06 35 10.0000000  0 31
G17  20884462.016                    20884468.742   109748593.254                    85518409.232          47.600                          47.400  
G11  23660383.406                    23660391.352   124336185.189                    96885349.072          42.100                          43.800  
G14  23084399.938                    23084411.652   121309336.989                    94526781.713          41.400                          45.300  
G22  22192808.641    22192815.836                   116623996.914    90875868.739                          45.800          34.400                  
G03  22497475.977                    22497486.422   118225047.687                    92123427.381          42.600                          44.200  
G19  20074113.930    20074117.695                   105490174.127    82200159.582                          47.500          41.600                  
G06  21307053.477                    21307062.906   111969336.480                    87248846.163          47.100                          46.800  
G09  24035190.563                    24035206.941   126305759.226                    98420122.361          38.800                          42.100  
G04  23739669.781                    23739681.746   124752796.335                    97210009.453          38.300                          40.000  
R01  21215959.789    21215958.742                                   113411462.891   113411443.894                                          45.800          43.100                                  
R02  21251142.547    21251142.164    21251151.914    21251151.570   113400175.626   113400164.634    88200129.550    88200136.554          46.600          46.200          46.800          47.400  
R18  21883381.938    21883380.160    21883390.875    21883390.086   116814980.950   116814963.945    90856083.767    90856087.757          45.600          43.000          45.700          47.500  
R17  19918209.031    19918207.625    19918214.832    19918214.340   106586351.348   106586340.353    82900493.381    82900497.384          51.500          49.400          48.500          49.000  
R16  21709481.492    21709480.918    21709489.734    21709489.652   115968161.002   115968140.009    90197447.266    90197454.263          47.300          46.200          45.600          45.500  
R15  21664145.906    21664145.906    21664155.547    21664154.848   115766614.685   115766600.674    90040691.233    90040696.237          48.000          47.200          45.700          45.600  
R24  21853039.008    21853038.895    21853048.539    21853048.289   116858020.784   116858006.801    90889559.278    90889565.282          44.900          43.800          45.500          46.700  
E13  26382725.711    26382735.461    26382733.398    26382735.758   138642159.783   103531484.243   106232304.667   104881870.561          42.300          44.100          44.800          50.100  
E30  26212333.672    26212343.789    26212341.680    26212344.063   137746736.031   102862859.400   105546228.692   104204549.153          44.800          44.200          45.700          50.900  
E15  23646571.742    23646578.957    23646577.035    23646579.270   124263573.049    92794213.227    95214931.072    94004563.256          48.200          48.700          49.000          55.500  
E21  26842248.797    26842256.840    26842254.258    26842257.070   141056968.257   105334780.742   108082634.738   106708669.847          41.900          42.000          43.500          48.200  
E05  25710757.750    25710767.746    25710766.570    25710769.254   135110952.149   100894581.232   103526604.910   102210603.680          40.800          40.100          42.500          47.100  
E27  24451351.688    24451358.824    24451356.762    24451359.125   128492718.347    95952372.268    98455472.085    97203880.285          48.300          47.100          48.600          54.100  
C04  38672357.461    38672357.352   201377114.175   155717555.358          36.000          41.500  
C03  37649680.492    37649680.914   196051768.467   151599660.770          39.000          41.500  
C02  39130210.570    39130210.652   203761287.683   157561141.609          34.600          39.700  
C01  38205117.391    38205117.324   198944067.770   153836175.977          40.300          40.300  
C30  22169187.906                   115440775.415                          48.600                  
C29  22611476.367                   117743884.284                          48.200                  
C27  25638319.641                   133505438.919                          41.400                  
C20  24569376.102                   127939198.962                          43.800                  
C13  39126416.836    39126425.660   203741526.539   157545907.979          40.600          39.800  
> 2025 04 10 06 35 15.0000000  0 31
G17  20884064.758                    20884071.555   109746506.604                    85516783.261          47.800                          47.700  
G11  23656609.281                    23656617.598   124316350.822                    96869893.763          42.800                          43.700  
G14  23086501.133                    23086513.520   121320383.028                    94535388.979          40.700                          44.500  
G22  22193903.859    22193911.309                   116629753.935    90880354.725                          45.500          33.700                  
G03  22499019.266                    22499029.430   118233156.680                    92129746.067          41.400                          42.700  
G19  20071958.188    20071962.305                   105478847.563    82191333.680                          47.800          40.500                  
G06  21304504.570                    21304513.898   111955943.580                    87238410.146          48.000                          47.800  
G09  24031040.594                    24031056.961   126283950.152                    98403128.384          37.600                          41.100  
G04  23736502.594                    23736514.125   124736153.315                    97197040.838          39.100                          40.400  
R01  21215516.656    21215516.195                                   113409100.849   113409081.842                                          43.400          42.600                                  
R02  21247131.344    21247130.609    21247140.676    21247140.371   113378770.184   113378759.185    88183480.896    88183487.906          47.500          46.000          46.000          46.800  
R18  21879849.500    21879848.191    21879858.277    21879857.242   116796126.296   116796109.322    90841419.082    90841423.088          45.700          43.900          47.000          48.100  
R17  19916656.719    19916655.313    19916662.867    19916663.121   106578046.869   106578035.881    82894034.342    82894038.339          50.500          48.700          47.100          48.000  
R16  21707682.492    21707681.332    21707689.773    21707689.844   115958547.114   115958526.129    90189969.785    90189976.797          49.200          47.400          46.500          46.600  
R15  21665753.766    21665753.410    21665763.805    21665763.547   115775209.806   115775195.802    90047376.280    90047381.284          47.500          45.900          45.300          45.700  
R24  21853948.914    21853948.918    21853957.672    21853957.316   116862882.346   116862868.361    90893340.477    90893346.473          46.900          45.800          45.700          47.000  
E13  26379573.930    26379584.340    26379581.715    26379584.211   138625599.088   103519117.487   106219615.292   104869342.498          42.600          42.900          43.700          48.800  
E30  26213767.742    26213778.090    26213775.699    26213778.105   137754272.129   102868486.982   105552003.090   104210250.143          44.600          44.900          46.300          51.200  
E15  23645162.898    23645169.844    23645167.969    23645170.250   124256168.674    92788683.980    95209257.580    93998961.888          48.500          48.300          49.000          55.300  
E21  26839058.172    26839066.570    26839064.133    26839066.621   141040202.781   105322261.123   108069788.512   106695986.924          42.800          41.200          42.200          47.400  
E05  25708346.703    25708358.355    25708356.574    25708359.684   135098288.768   100885124.846   103516901.824   102201023.941          42.600          42.100          44.000          48.800  
E27  24450675.445    24450682.406    24450680.250    24450682.625   128489163.537    95949717.702    98452748.275    97201191.096          47.400          47.600          49.200          54.700  
C04  38671006.617    38671006.219   201370077.717   155712114.345          36.700          41.500  
C03  37648352.555    37648352.492   196044854.557   151594314.485          39.600          41.400  
C02  39128868.016    39128868.578   203754298.306   157555736.926          35.300          40.100  
C01  38203796.938    38203796.699   198937191.504   153830858.827          39.600          41.500  
C30  22168813.906                   115438827.860                          48.700                  
C29  22608637.586                   117729101.081                          47.700                  
C27  25639435.250                   133511252.529                          43.200                  
C20  24565064.164                   127916744.619                          44.500                  
C13  39123924.117    39123932.887   203728544.636   157535869.556          41.400          40.000  
> 2025 04 10 06 35 20.0000000  0 31
G17  20883669.727                    20883676.066   109744429.483                    85515164.726          47.100                          46.500  
G11  23652836.047                    23652844.523   124296520.571                    96854441.620          42.200                          45.700  
G14  23088604.398                    23088616.520   121331433.379                    94543999.609          41.100                          43.600  
G22  22195001.039    22195008.152                   116635520.724    90884848.304                          45.500          33.600                  
G03  22500563.617                    22500574.230   118241275.138                    92136072.160          40.000                          42.000  
G19  20069804.953    20069808.754                   105467532.146    82182516.488                          46.300          39.200                  
G06  21301956.961                    21301967.387   111942558.063                    87227979.830          48.100                          47.800  
G09  24026890.234                    24026907.129   126262144.056                    98386136.742          37.100                          42.500  
G04  23733336.773                    23733349.695   124719519.817                    97184079.718          40.100                          43.000  
R01  21215080.102    21215078.938                                   113406761.134   113406742.150                                          42.200          41.100                                  
R02  21243122.703    21243121.969    21243131.953    21243131.805   113357380.120   113357369.127    88166844.191    88166851.195          47.900          46.900          47.000          47.200  
R18  21876317.891    21876317.285    21876326.508    21876325.645   116777274.768   116777257.765    90826756.770    90826760.772          46.000          45.100          47.200          47.900  
R17  19915106.469    19915104.359    19915111.949    19915111.805   106569749.519   106569738.522    82887580.868    82887584.864          49.300          47.200          46.200          46.700  
R16  21705886.297    21705886.074    21705895.230    21705895.172   115948955.189   115948934.177    90182509.378    90182516.383          48.600          47.500          47.800          48.000  
R15  21667364.625    21667364.859    21667375.176    21667374.379   115783818.376   115783804.402    90054071.856    90054076.860          47.600          46.000          45.900          47.200  
R24  21854859.180    21854858.480    21854867.617    21854866.949   116867747.966   116867733.978    90897124.861    90897130.866          43.800          41.800          42.400          43.200  
E13  26376423.313    26376432.973    26376431.188    26376433.457   138609041.553   103506753.088   106206928.360   104856816.829          43.000          44.600          45.200          50.700  
E30  26215202.531    26215212.906    26215210.656    26215213.023   137761812.807   102874118.009   105557781.011   104215954.617          44.600          44.400          45.500          51.300  
E15  23643754.609    23643761.457    23643760.047    23643761.984   124248769.001    92783158.286    95203587.729    93993364.117          48.400          47.400          48.100          54.100  
E21  26835869.219    26835877.426    26835874.707    26835877.641   141023445.466   105309747.435   108056948.373   106683310.014          44.300          43.500          45.100          50.100  
E05  25705939.422    25705949.441    25705946.156    25705951.625   135085634.956   100875675.654   103507206.112   102191451.493          38.200          35.600          35.000          41.000  
E27  24450001.000    24450008.285    24450006.082    24450008.496   128485620.243    95947071.705    98450033.253    97198510.589          48.300          47.800          49.500          55.200  
C04  38669654.938    38669655.012   201363041.058   155706673.160          38.300          42.900  
C03  37647025.070    37647025.184   196037940.400   151588968.049          39.100          41.800  
C02  39127526.031    39127526.105   203747308.528   157550332.027          35.300          40.400  
C01  38202475.875    38202476.582   198930315.046   153825541.490          39.500          41.500  
C30  22168440.984                   115436886.229                          48.200                  
C29  22605799.320                   117714321.877                          48.800                  
C27  25640552.797                   133517067.937                          46.500                  
C20  24560753.016                   127894295.313                          43.200                  
C13  39121431.930    39121439.625   203715565.223   157525833.099          40.500          39.100  
> 2025 04 10 06 35 25.0000000  0 31
G17  20883276.063                    20883282.773   109742362.303                    85513553.932          47.800                          47.200  
G11  23649061.516                    23649071.367   124276694.680                    96838992.912          41.100                          45.600  
G14  23090708.305                    23090720.137   121342488.563                    94552613.962          40.800                          43.900  
G22  22196101.180    22196107.461                   116641297.628    90889349.784                          45.500          33.300                  
G03  22502111.461                    22502120.879   118249403.210                    92142405.680          42.500                          43.500  
G19  20067654.438    20067657.813                   105456228.220    82173708.223                          47.400          41.100                  
G06  21299411.500                    21299421.570   111929180.354                    87217555.697          46.400                          48.000  
G09  24022741.070                    24022758.109   126240341.396                    98369147.730          37.000                          42.100  
G04  23730173.234                    23730185.504   124702896.482                    97171126.519          40.000                          42.800  
R01  21214646.945    21214646.367                                   113404443.816   113404424.832                                          44.300          43.400                                  
R02  21239116.906    21239115.938    21239126.254    21239126.348   113336005.768   113335994.761    88150219.721    88150226.731          47.000          45.600          46.300          46.900  
R18  21872787.539    21872786.699    21872795.320    21872794.145   116758426.659   116758409.684    90812097.170    90812101.174          45.700          44.300          45.100          46.100  
R17  19913557.250    19913555.258    19913562.973    19913562.703   106561459.664   106561448.677    82881133.177    82881137.165          51.700          49.100          48.300          49.300  
R16  21704094.820    21704094.129    21704103.086    21704102.977   115939385.688   115939364.702    90175066.514    90175073.525          48.100          46.500          46.000          46.400  
R15  21668978.891    21668979.242    21668989.695    21668989.051   115792440.796   115792426.807    90060778.109    90060783.106          47.300          45.800          46.700          46.800  
R24  21855769.773    21855769.191    21855778.652    21855778.281   116872617.950   116872603.944    90900912.567    90900918.563          46.900          45.400          45.600          47.000  
E13  26373273.031    26373282.609    26373280.969    26373283.113   138592487.534   103494391.355   106194244.127   104844293.850          43.600          43.100          44.500          49.800  
E30  26216638.484    26216649.063    26216646.578    26216648.926   137769358.564   102879752.769   105563562.760   104221662.875          44.600          44.600          46.300          51.100  
E15  23642347.445    23642354.625    23642352.563    23642354.941   124241374.465    92777636.356    95197921.759    93987770.166          48.900          48.300          49.100          55.400  
E21  26832681.984    26832690.480    26832687.523    26832690.484   141006696.622   105297240.303   108044114.978   106670639.751          41.300          42.300          42.600          48.200  
E05  25703534.617    25703545.559    25703541.805    25703545.398   135072991.393   100866233.975   103497518.123   102181886.662          41.600          41.200          42.100          47.100  
E27  24449329.039    24449336.035    24449334.441    24449336.398   128482088.918    95944434.696    98447327.450    97195839.180          48.200          47.200          49.000          54.500  
C04  38668303.953    38668303.598   201356004.560   155701232.084          36.300          41.900  
C03  37645697.344    37645697.426   196031026.407   151583621.695          39.200          41.200  
C02  39126183.281    39126184.211   203740318.768   157544927.069          35.000          40.700  
C01  38201155.430    38201155.785   198923438.661   153820224.260          39.400          40.700  
C30  22168069.109                   115434950.852                          48.600                  
C29  22602962.125                   117699547.083                          48.000                  
C27  25641669.570                   133522885.756                          43.000                  
C20  24556442.695                   127871851.448                          44.400                  
C13  39118939.523    39118947.457   203702588.661   157515798.779          39.900          39.800  
> 2025 04 10 06 35 30.0000000  0 31
G17  20882884.922                    20882891.320   109740305.291                    85511951.079          47.200                          47.200  
G11  23645290.406                    23645300.008   124256873.466                    96823547.844          41.500                          44.500  
G14  23092812.852                    23092824.953   121353548.682                    94561232.169          41.800                          44.000  
G22  22197202.555    22197209.496                   116647084.843    90893859.272                          45.500          34.200                  
G03  22503660.000                    22503669.664   118257541.316                    92148747.063          43.000                          43.900  
G19  20065505.180    20065508.980                   105444936.114    82164909.180                          47.500          41.400                  
G06  21296867.586                    21296876.855   111915810.648                    87207137.750          47.300                          47.400  
G09  24018593.344                    24018609.957   126218542.517                    98352161.688          37.800                          41.800  
G04  23727011.969                    23727024.688   124686283.415                    97158181.324          38.900                          43.400  
R01  21214216.750    21214215.938                                   113402149.306   113402130.329                                          44.500          42.600                                  
