     2.11           OBSERVATION DATA    G (GPS)             RINEX VERSION / TYPE
teqc  2018Dec12     gpsops              20260223 00:29:05UTCPGM / RUN BY / DATE
Linux 2.6.32-573.12.1.x86_64|x86_64|gcc -static|Linux 64|=+ COMMENT
BIT 2 OF LLI FLAGS DATA COLLECTED UNDER A/S CONDITION       COMMENT
CHAN                                                        MARKER NAME
21611M002                                                   MARKER NUMBER
GGN                 Changchun Observatory,NAOC,CAS          OBSERVER / AGENCY
UC2200511014        ASHTECH UZ-12       CQ00                REC # / TYPE / VERS
16892               ASH701945C_M    NONE                    ANT # / TYPE
 -2674431.9143  3757145.2969  4391528.8732                  APPROX POSITION XYZ
        0.2500        0.0000        0.0000                  ANTENNA: DELTA H/E/N
     1     1                                                WAVELENGTH FACT L1/2
     7    L1    L2    P1    P2    C1    S1    S2            # / TYPES OF OBSERV
    30.0000                                                 INTERVAL
Forced Modulo Decimation to 30 seconds                      COMMENT
 SNR is mapped to RINEX snr flag value [0-9]                COMMENT
  L1 & L2: min(max(int(snr_dBHz/6), 0), 9)                  COMMENT
pseudorange smoothing corrections not applied               COMMENT
  2026     2    22     0     0    0.0000000     GPS         TIME OF FIRST OBS
This data is provided as a public service by NASA/JPL.      COMMENT
No warranty is expressed or implied regarding suitability   COMMENT
for use.  For further information, contact:                 COMMENT
ggnops at jpl dot nasa dot gov                              COMMENT
                                                            END OF HEADER
 26  2 22  0  0  0.0000000  0 10G16G04G03G27G28G09G29G31G26G18
 -23122586.82748 -17961178.01648  20337177.1764   20337180.3774   20337177.629
        53.0004         48.0004
 -14294860.00548 -11089004.61947  21802187.2054   21802191.4084   21802186.408
        50.0004         45.0004
   4050850.67257   3189722.34756  25054695.3265   25054703.3475   25054693.645
        44.0004         39.0004
  -7448650.47148  -5756892.10447  23058132.9574   23058140.1104   23058132.980
        51.0004         47.0004
 -14510834.89548 -11255613.64647  22376955.5264   22376959.9694   22376954.382
        49.0004         44.0004
   -757820.64648   -546734.47547  23648016.3174   23648022.7404   23648016.509
        48.0004         43.0004
  -4387312.36748  -3410845.24947  23959247.8244   23959254.4404   23959246.826
        48.0004         43.0004
 -20332373.62649 -15791314.59349  20564932.2864   20564934.8314   20564931.719
        58.0004         54.0004
 -21173186.08249 -16419604.98649  20363892.8924   20363899.1674   20363892.769
        59.0004         54.0004
  -1336203.88047  -1004987.73346  24948363.6204   24948369.2664   24948363.087
        42.0004         37.0004
 26  2 22  0  0 30.0000000  0  9G16G04G27G28G09G29G31G26G18
 -23162966.82848 -17992642.96448  20329492.7734   20329496.8834   20329493.453
        53.0004         48.0004
 -14340320.42448 -11124428.35347  21793536.4724   21793540.3814   21793536.277
        50.0004         45.0004
  -7564882.26248  -5847462.29947  23036015.1464   23036021.9344   23036015.738
        51.0004         47.0004
 -14436843.65348 -11197958.21847  22391035.5804   22391040.3394   22391035.686
        49.0004         44.0004
   -844960.07648   -614635.35347  23631434.6664   23631440.5064   23631434.697
        48.0004         44.0004
  -4301630.60848  -3344080.41947  23975552.9864   23975558.9404   23975552.432
        48.0004         43.0004
 -20297882.56149 -15764438.47249  20571495.8244   20571498.2134   20571495.588
        58.0004         54.0004
 -21145761.26649 -16398235.02949  20369111.8194   20369118.1534   20369111.549
        59.0004         54.0004
  -1406362.31146  -1059656.52346  24935012.2344   24935018.7784   24935011.042
        41.0004         37.0004
 26  2 22  0  1  0.0000000  0  9G16G04G27G28G09G29G31G26G18
 -23202903.14348 -18023762.18548  20321893.8234   20321896.9704   20321893.814
        53.0004         48.0004
 -14385228.19048 -11159421.44847  21784991.1894   21784994.3854   21784990.518
        50.0004         45.0004
  -7680903.91548  -5937868.76647  23013936.6464   23013943.4204   23013936.603
        51.0004         47.0004
 -14362576.48648 -11140087.78447  22405168.2074   22405174.1134   22405167.996
        49.0004         44.0004
   -931735.47848   -682252.57047  23614920.7884   23614927.9804   23614921.156
        48.0004         44.0004
  -4215603.59648  -3277046.56247  23991924.4994   23991929.7584   23991925.649
        48.0004         43.0004
 -20263001.32149 -15737258.33149  20578133.4914   20578135.9864   20578133.433
        58.0004         54.0004
 -21117970.01649 -16376579.54049  20374400.2084   20374406.4404   20374399.894
        59.0004         54.0004
  -1476272.27246  -1114131.68846  24921710.8794   24921714.4484   24921709.544
        41.0004         36.0004
 26  2 22  0  1 30.0000000  0  9G16G04G27G28G09G29G31G26G18
 -23242395.85748 -18054535.73848  20314378.5474   20314381.6434   20314378.481
        53.0004         48.0004
 -14429581.51248 -11193982.51047  21776550.7014   21776554.9444   21776550.018
        50.0004         45.0004
  -7796712.66248  -6028109.33647  22991899.2724   22991905.7634   22991898.864
        51.0004         47.0004
 -14288034.08548 -11082002.91047  22419352.5084   22419357.7104   22419352.694
        49.0004         44.0004
  -1018144.30448   -749584.11347  23598478.3064   23598485.0554   23598478.354
        48.0004         44.0004
  -4129234.44548  -3209746.07447  24008359.2304   24008365.0344   24008359.480
        48.0004         43.0004
 -20227729.98549 -15709774.22549  20584845.4804   20584848.0574   20584845.366
        58.0004         54.0004
 -21089813.50049 -16354639.43249  20379758.3064   20379764.5174   20379758.367
        59.0004         54.0004
  -1545930.97746  -1168411.11546  24908452.1704   24908461.2804   24908452.136
        41.0004         36.0004
 26  2 22  0  2  0.0000000  0  9G16G04G27G28G09G29G31G26G18
 -23281444.29948 -18084963.11848  20306947.9364   20306950.6144   20306948.009
        53.0004         48.0004
 -14473378.46948 -11228110.03247  21768216.1324   21768220.7924   21768215.866
        50.0004         45.0004
  -7912305.48948  -6118181.64447  22969902.4564   22969909.5244   22969902.008
        51.0004         47.0004
 -14213216.92848 -11023703.91947  22433589.8894   22433594.5204   22433589.808
        49.0004         44.0004
  -1104183.64748   -816627.78047  23582105.5794   23582112.4734   23582105.195
        48.0004         44.0004
  -4042524.89448  -3142180.36447  24024859.4634   24024865.3134   24024859.064
        48.0004         43.0004
 -20192068.37149 -15681985.99749  20591631.5844   20591634.4404   20591631.393
        58.0004         54.0004
 -21061292.78949 -16332415.53849  20385185.4724   20385192.0264   20385185.442
        59.0004         54.0004
  -1615335.26946  -1222492.29246  24895244.4764   24895252.9994   24895245.285
        41.0004         36.0004
 26  2 22  0  2 30.0000000  0  9G16G04G27G28G09G29G31G26G18
 -23320048.93648 -18115044.65748  20299601.2364   20299604.9534   20299601.426
        53.0004         48.0004
 -14516617.45848 -11261802.78747  21759987.7424   21759992.9434   21759987.874
        50.0004         45.0004
  -8027679.60448  -6208083.54747  22947947.4254   22947954.5984   22947946.626
        52.0004         47.0004
 -14138125.74248 -10965191.40147  22447879.2664   22447883.9214   22447879.566
        49.0004         44.0004
  -1189850.96848   -883381.54247  23565803.6054   23565810.7124   23565803.458
        49.0004         44.0004
  -3955477.95148  -3074351.75447  24041424.8514   24041429.7824   24041424.703
        48.0004         43.0004
 -20156016.70749 -15653893.82949  20598492.1814   20598494.7714   20598491.626
        58.0004         54.0004
 -21032409.08749 -16309908.79249  20390681.8724   20390688.3124   20390681.855
        59.0004         54.0004
  -1684482.40746  -1276373.08846  24882086.4954   24882097.6104   24882087.121
        41.0004         36.0004
 26  2 22  0  3  0.0000000  0  9G16G04G27G28G09G29G31G26G18
 -23358209.30948 -18144780.02548  20292339.7404   20292343.3914   20292340.034
        53.0004         48.0004
 -14559296.69348 -11295059.36147  21751866.1774   21751871.0434   21751866.150
        50.0004         45.0004
  -8142832.17448  -6297812.80347  22926034.3334   22926041.5304   22926034.235
        52.0004         47.0004
 -14062761.19648 -10906465.87747  22462221.3754   22462225.7224   22462221.154
        49.0004         44.0004
  -1275143.55848   -949843.31747  23549572.9914   23549579.7304   23549572.475
        49.0004         44.0004
  -3868096.14448  -3006262.20247  24058053.2404   24058058.2014   24058053.440
        48.0004         43.0004
 -20119575.05149 -15625497.77349  20605426.8274   20605429.4304   20605426.618
        58.0004         54.0004
 -21003163.60349 -16287120.13349  20396246.9354   20396253.4934   20396247.042
        59.0004         54.0004
  -1753369.41746  -1330051.17346  24868979.2444   24868986.3664   24868977.627
        40.0004         36.0004
 26  2 22  0  3 30.0000000  0  9G16G04G27G28G09G29G31G26G18
 -23395925.11648 -18174168.97448  20285162.6524   20285166.0874   20285163.252
        53.0004         48.0004
 -14601414.42248 -11327878.39147  21743851.4214   21743856.2174   21743851.258
        50.0004         45.0004
  -8257760.26748  -6387367.16347  22904164.0394   22904171.1734   22904163.944
        51.0004         47.0004
 -13987123.84148 -10847527.78647  22476615.3654   22476619.1964   22476615.068
        49.0004         44.0004
  -1360058.70248  -1016010.97647  23533414.8234   23533420.9464   23533414.220
        49.0004         44.0004
  -3780381.94848  -2937913.65247  24074745.4674   24074749.9454   24074744.801
        48.0004         43.0004
 -20082743.50249 -15596797.90149  20612435.5664   20612437.8594   20612435.278
        58.0004         54.0004
 -20973557.44849 -16264050.43849  20401881.1154   20401887.3324   20401881.095
        59.0004         54.0004
  -1821993.34246  -1383524.27646  24855921.7094   24855928.0544   24855920.607
        40.0004         36.0004
 26  2 22  0  4  0.0000000  0  9G16G04G27G28G09G29G31G26G18
 -23433196.75748 -18203211.82348  20278070.2164   20278073.5364   20278070.548
        53.0004         48.0004
 -14642968.96648 -11360258.58147  21735944.7414   21735949.3584   21735944.450
        50.0004         45.0004
  -8372461.07448  -6476744.41347  22882336.6404   22882344.3264   22882337.064
        51.0004         47.0004
 -13911214.40348 -10788377.67247  22491059.6624   22491064.8174   22491059.753
        49.0004         44.0004
  -1444593.75848  -1081882.44847  23517327.7174   23517334.1444   23517327.973
        49.0004         44.0004
  -3692338.14848  -2869308.25947  24091499.0034   24091503.2454   24091499.604
        48.0004         43.0004
 -20045522.21349 -15567794.35349  20619518.5554   20619521.0484   20619518.340
        58.0004         54.0004
 -20943591.80449 -16240700.61349  20407583.2324   20407589.6114   20407583.035
        59.0004         54.0004
  -1890351.28746  -1436790.11546  24842911.0984   24842918.0674   24842911.952
        40.0004         36.0004
 26  2 22  0  4 30.0000000  0  9G16G04G27G28G09G29G31G26G18
 -23470024.01048 -18231908.40448  20271061.8754   20271065.7124   20271062.683
        53.0004         48.0004
 -14683958.67848 -11392198.63647  21728143.5374   21728148.8634   21728144.477
        50.0004         45.0004
  -8486931.69548  -6565942.29447  22860554.5864   22860561.4874   22860554.174
        52.0004         47.0004
 -13835033.56448 -10729016.08447  22505556.3564   22505561.4914   22505555.951
        48.0004         44.0004
  -1528746.12248  -1147455.71847  23501314.2664   23501321.4064   23501313.242
        49.0004         44.0004
  -3603967.25548  -2800447.99547  24108316.5734   24108320.5824   24108317.164
        48.0004         43.0004
 -20007911.69449 -15538487.48949  20626675.6054   20626678.3624   20626675.340
        58.0004         54.0004
 -20913267.88149 -16217071.61449  20413354.0784   20413360.3004   20413353.882
        59.0004         54.0004
  -1958440.38546  -1489846.45946  24829955.7574   24829965.3614   24829954.696
        40.0004         36.0004
 26  2 22  0  5  0.0000000  0  9G16G04G27G28G09G29G31G26G18
 -23506406.74148 -18260258.59048  20264138.6314   20264142.4684   20264138.837
        53.0004         48.0004
 -14724381.89048 -11423697.25847  21720450.9104   21720456.6164   21720451.387
        50.0004         45.0004
  -8601169.27548  -6654958.59447  22838815.6724   22838822.7874   22838815.570
        52.0004         47.0004
 -13758581.91748 -10669443.47747  22520105.1394   22520108.7774   22520103.980
        48.0004         44.0004
  -1612513.04748  -1212728.64447  23485373.4854   23485380.3624   23485372.871
        49.0004         44.0004
  -3515271.59248  -2731334.64747  24125194.5844   24125199.0214   24125194.499
        48.0004         43.0004
 -19969911.78349 -15508877.22049  20633906.8894   20633909.7164   20633906.647
        58.0004         54.0004
 -20882586.80449 -16193164.30849  20419192.4784   20419198.6054   20419192.364
        59.0004         54.0004
  -2026257.67646  -1542691.00646  24817049.6074   24817053.6234   24817049.643
        41.0004         36.0004
 26  2 22  0  5 30.0000000  0  9G16G04G27G28G09G29G31G26G18
 -23542344.86348 -18288262.33348  20257300.1024   20257303.0114   20257300.499
        53.0004         48.0004
 -14764236.94148 -11454753.17247  21712867.8834   21712872.9764   21712867.936
        50.0004         45.0004
  -8715171.03948  -6743791.14247  22817121.7104   22817128.8714   22817121.202
        52.0004         47.0004
 -13681860.17748 -10609660.40347  22534705.1444   22534709.4944   22534704.410
        48.0004         44.0004
  -1695891.95848  -1277699.22147  23469507.8004   23469514.2894   23469508.410
        49.0004         44.0004
  -3426254.49848  -2661970.83247  24142132.8114   24142138.6914   24142133.744
        48.0004         43.0004
 -19931522.56149 -15478963.57949  20641212.1624   20641215.1174   20641212.187
        58.0004         54.0004
 -20851549.80049 -16168979.65349  20425098.4344   20425104.8554   20425098.220
        59.0004         54.0004
  -2093800.32146  -1595321.54846  24804196.4194   24804205.5014   24804197.086
        41.0004         36.0004
 26  2 22  0  6  0.0000000  0  9G16G04G27G28G09G29G31G26G18
 -23577838.47748 -18315919.70548  20250545.9604   20250549.0264   20250546.279
        53.0004         48.0004
 -14803522.23948 -11485365.11047  21705391.9534   21705396.7074   21705391.474
        50.0004         45.0004
  -8828934.01648  -6832437.63347  22795473.5524   22795480.4024   22795473.359
        52.0004         47.0004
 -13604869.03548 -10549667.41447  22549355.6314   22549360.7494   22549355.273
        48.0004         44.0004
  -1778880.17248  -1342365.36747  23453715.7804   23453722.3834   23453715.593
        49.0004         45.0004
  -3336918.20047  -2592358.30847  24159133.4744   24159139.5804   24159132.512
        47.0004         43.0004
 -19892744.33949 -15448746.82148  20648591.4854   20648594.2024   20648591.294
        58.0004         53.0004
 -20820158.05149 -16144518.57549  20431072.1154   20431078.5094   20431071.990
        59.0004         54.0004
  -2161065.41746  -1647735.81546  24791396.6924   24791403.9894   24791396.371
        41.0004         36.0004
 26  2 22  0  6 30.0000000  0  9G16G04G27G28G09G29G31G26G18
 -23612887.36248 -18343230.52948  20243876.3094   20243879.5004   20243876.693
        53.0004         48.0004
 -14842236.14948 -11515531.81747  21698025.5474   21698029.9964   21698024.656
        50.0004         45.0004
  -8942455.41348  -6920895.86347  22773871.0624   22773878.2144   22773871.312
        52.0004         47.0004
 -13527609.15048 -10489465.00447  22564058.5224   22564062.3564   22564058.119
        48.0004         44.0004
  -1861475.06448  -1406725.03647  23437998.2114   23438004.4184   23437998.246
        49.0004         45.0004
  -3247265.24147  -2522499.03547  24176194.1064   24176199.7294   24176194.500
        47.0004         43.0004
 -19853577.31849 -15418227.10148  20656044.5624   20656047.2104   20656044.249
        58.0004         53.0004
 -20788412.69349 -16119781.96249  20437112.9694   20437119.5124   20437112.919
        59.0004         54.0004
  -2228050.05146  -1699931.55046  24778650.2954   24778655.4894   24778649.210
        41.0004         36.0004
 26  2 22  0  7  0.0000000  0  9G16G04G27G28G09G29G31G26G18
 -23647491.88448 -18370195.09648  20237291.6104   20237294.7184   20237291.772
        53.0004         48.0004
 -14880377.09148 -11545252.05747  21690766.8934   21690771.4294   21690766.718
        50.0004         45.0004
  -9055732.36048  -7009163.59948  22752315.3904   22752322.5904   22752315.407
        52.0004         48.0004
 -13450081.28148 -10429053.78347  22578811.2424   22578815.5074   22578810.620
        48.0004         44.0004
  -1943673.98748  -1470776.14147  23422356.0754   23422361.8914   23422356.393
        49.0004         45.0004
  -3157298.14847  -2452394.96847  24193314.9814   24193320.4914   24193314.848
        47.0004         43.0004
 -19814021.58749 -15387404.48348  20663571.9844   20663574.3794   20663571.571
        58.0004         53.0004
 -20756314.90949 -16094770.72949  20443221.2784   20443227.6034   20443221.343
        59.0004         54.0004
  -2294751.41846  -1751906.55646  24765955.0364   24765964.4314   24765955.869
        40.0004         36.0004
 26  2 22  0  7 30.0000000  0  9G16G04G27G28G09G29G31G26G18
 -23681651.51048 -18396813.00148  20230790.8404   20230794.3284   20230791.321
        53.0004         48.0004
 -14917943.54848 -11574524.63447  21683618.4874   21683623.4144   21683618.025
        50.0004         45.0004
  -9168762.00148  -7097238.65548  22730806.3784   22730813.4144   22730806.723
        52.0004         48.0004
 -13372286.05348 -10368434.23547  22593615.1044   22593619.2654   22593615.031
        48.0004         44.0004
  -2025474.32848  -1534516.65947  23406790.3624   23406796.4104   23406790.157
        49.0004         45.0004
  -3067019.64848  -2382048.26847  24210493.3064   24210500.2674   24210492.712
        48.0004         43.0004
 -19774077.51249 -15356279.27748  20671173.0334   20671175.6574   20671173.105
        58.0004         53.0004
 -20723865.91049 -16069485.81649  20449396.0424   20449402.3964   20449396.005
        59.0004         54.0004
  -2361166.60546  -1803658.55446  24753317.6124   24753324.5004   24753316.355
        40.0004         36.0004
 26  2 22  0  8  0.0000000  0  9G16G04G27G28G09G29G31G26G18
 -23715366.30148 -18423084.27048  20224375.0944   20224378.4354   20224375.367
        53.0004         48.0004
 -14954933.91748 -11603348.32347  21676578.5944   21676584.3654   21676579.037
        50.0004         45.0004
  -9281541.43348  -7185118.74248  22709345.4764   22709351.9054   22709346.026
        52.0004         48.0004
 -13294224.14448 -10307606.87647  22608470.9064   22608474.2324   22608470.296
        48.0004         44.0004
  -2106873.39248  -1597944.50147  23391300.7164   23391306.0734   23391299.884
        49.0004         45.0004
  -2976432.53648  -2311461.10847  24227732.4604   24227738.9424   24227732.475
        48.0004         43.0004
 -19733745.07749 -15324851.44148  20678847.7784   20678850.6074   20678847.604
        58.0004         53.0004
 -20691066.83649 -16043928.12349  20455637.3654   20455643.7464   20455637.254
        58.0004         54.0004
  -2427292.68646  -1855185.29246  24740732.9374   24740740.3884   24740735.034
        41.0004         36.0004
 26  2 22  0  8 30.0000000  0  9G16G04G27G28G09G29G31G26G18
 -23748636.73248 -18449009.29648  20218044.1434   20218047.2184   20218044.298
        53.0004         48.0004
 -14991346.78948 -11631722.01547  21669650.9134   21669655.2144   21669649.964
        50.0004         45.0004
  -9394067.96348  -7272801.74648  22687932.2034   22687939.2254   22687932.298
        52.0004         48.0004
 -13215896.41648 -10246572.40547  22623375.3954   22623379.2534   22623375.023
        48.0004         44.0004
  -2187868.74648  -1661057.78247  23375887.3024   23375893.0624   23375887.337
        49.0004         45.0004
  -2885539.43048  -2240635.48647  24245029.0494   24245034.9434   24245028.666
        48.0004         43.0004
 -19693024.52449 -15293121.19248  20686596.7824   20686599.6864   20686596.594
        58.0004         53.0004
 -20657919.00349 -16018098.67349  20461945.3354   20461951.7504   20461945.343
        58.0004         54.0004
  -2493126.94646  -1906484.62846  24728207.9974   24728214.2724   24728205.301
        41.0004         36.0004
 26  2 22  0  9  0.0000000  0  9G16G04G27G28G09G29G31G26G18
 -23781462.57948 -18474587.89448  20211797.6384   20211801.0434   20211797.855
        53.0004         48.0004
 -15027180.51748 -11659644.42947  21662831.8324   21662836.2694   21662830.909
        50.0004         45.0004
  -9506338.56648  -7360285.33948  22666567.1494   22666574.7964   22666567.349
        53.0004         48.0004
 -13137303.38648 -10185331.17547  22638331.5714   22638335.0314   22638330.873
        48.0004         44.0004
  -2268457.59448  -1723854.27847  23360552.2324   23360558.8224   23360552.763
        50.0004         45.0004
  -2794342.67348  -2169573.23947  24262381.8994   24262388.4864   24262381.321
        48.0004         43.0004
 -19651916.30349 -15261088.86448  20694419.4614   20694422.3204   20694419.267
        58.0004         53.0004
 -20624423.44449 -15991998.27049  20468319.2634   20468325.8404   20468319.140
        58.0004         54.0004
  -2558666.40546  -1957554.26646  24715734.5544   24715742.5204   24715733.392
        41.0004         36.0004
 26  2 22  0  9 30.0000000  0  9G16G04G27G28G09G29G31G26G18
 -23813843.88048 -18499820.08048  20205635.3564   20205638.8344   20205635.878
        53.0004         48.0004
 -15062433.72548 -11687114.47547  21656122.8634   21656127.7794   21656122.430
        50.0004         45.0004
  -9618350.48548  -7447567.35448  22645252.6444   22645259.5974   22645252.505
        53.0004         48.0004
 -13058445.89148 -10123883.86547  22653337.1274   22653342.8704   22653336.918
        48.0004         44.0004
  -2348637.42248  -1786332.05147  23345294.1724   23345300.6104   23345294.074
        50.0004         45.0004
  -2702845.12547  -2098276.63747  24279793.6834   24279800.2974   24279791.701
        47.0004         42.0004
 -19610420.47949 -15228754.50348  20702316.1424   20702318.8274   20702315.983
        58.0004         53.0004
 -20590581.38049 -15965627.85949  20474759.1684   20474765.7064   20474758.892
        58.0004         54.0004
  -2623908.26846  -2008391.97646  24703317.9654   24703325.3304   24703317.565
        41.0004         36.0004
 26  2 22  0 10  0.0000000  0  9G16G04G27G28G09G29G31G26G18
 -23845780.58148 -18524705.83948  20199558.0524   20199561.8044   20199558.370
        53.0004         48.0004
 -15097104.97148 -11714131.05747  21649524.9194   21649529.7544   21649524.874
        50.0004         45.0004
  -9730100.92648  -7534645.61648  22623986.8844   22623994.6944   22623986.682
        53.0004         48.0004
 -12979324.68548 -10062231.08047  22668393.4614   22668398.8504   22668393.457
        48.0004         44.0004
  -2428405.68848  -1848489.14947  23330114.8504   23330121.6714   23330114.330
        50.0004         45.0004
  -2611049.38647  -2026747.67347  24297261.8734   24297268.0464   24297261.427
        47.0004         42.0004
 -19568537.31449 -15196118.30648  20710286.2244   20710288.9644   20710285.930
        58.0004         53.0004
 -20556394.08249 -15938988.43349  20481265.0074   20481271.2634   20481265.062
        58.0004         54.0004
  -2688849.68946  -2058995.58946  24690961.5534   24690968.6334   24690961.173
        41.0004         37.0004
 26  2 22  0 10 30.0000000  0  9G16G04G27G28G09G29G31G26G18
 -23877272.83148 -18549245.26548  20193565.8754   20193568.7734   20193565.850
        53.0004         48.0004
 -15131192.74348 -11740692.98247  21643038.4924   21643043.5874   21643038.557
        50.0004         45.0004
  -9841586.94548  -7621517.85648  22602772.1574   22602779.1914   22602771.931
        53.0004         48.0004
 -12899940.42648 -10000373.31147  22683500.7604   22683505.3614   22683500.416
        48.0004         44.0004
  -2507759.72748  -1910323.46947  23315013.7904   23315020.7114   23315013.350
        50.0004         45.0004
  -2518957.85347  -1954988.21147  24314787.4294   24314792.6814   24314787.657
        47.0004         42.0004
 -19526267.13749 -15163180.54148  20718329.9464   20718332.4784   20718329.432
        58.0004         53.0004
 -20521862.66749 -15912080.87049  20487836.0054   20487842.4624   20487835.837
        58.0004         54.0004
  -2753487.84446  -2109362.90146  24678662.2494   24678667.5434   24678661.345
        41.0004         37.0004
 26  2 22  0 11  0.0000000  0  9G16G04G27G28G09G29G31G26G18
 -23908320.61548 -18573438.35748  20187657.4004   20187660.3974   20187657.762
        53.0004         48.0004
 -15164695.69248 -11766799.19047  21636662.8454   21636667.5864   21636663.223
        50.0004         45.0004
  -9952805.79648  -7708181.90048  22581607.7894   22581614.8134   22581607.456
        53.0004         48.0004
 -12820293.92348  -9938311.19247  22698655.9614   22698660.4424   22698656.597
        48.0004         44.0004
  -2586697.00948  -1971833.03747  23299993.0674   23299999.8754   23299992.712
        50.0004         45.0004
  -2426573.58747  -1883000.62947  24332367.1884   24332372.9624   24332367.279
        47.0004         42.0004
 -19483609.97849 -15129941.23748  20726447.3274   20726450.0554   20726446.848
        58.0004         53.0004
 -20486988.36149 -15884906.11449  20494472.5114   20494478.9064   20494472.401
        58.0004         54.0004
  -2817819.88846  -2159491.68046  24666418.3044   24666425.7744   24666418.184
        41.0004         37.0004
 26  2 22  0 11 30.0000000  0  9G16G04G27G28G09G29G31G26G18
 -23938924.11048 -18597285.24948  20181833.6784   20181837.0134   20181833.616
        53.0004         48.0004
 -15197612.39148 -11792448.59147  21630400.1984   21630404.2784   21630399.314
        50.0004         45.0004
 -10063754.61848  -7794635.54248  22560495.0014   22560501.9194   22560495.515
        53.0004         48.0004
 -12740385.93048  -9876045.32747  22713861.9034   22713866.1444   22713862.006
        48.0004         43.0004
  -2665214.92948  -2033015.83447  23285051.3414   23285058.0104   23285051.102
        50.0004         45.0004
  -2333899.01247  -1810786.86647  24350003.5984   24350009.1524   24350003.431
        47.0004         42.0004
 -19440566.26949 -15096400.73048  20734638.2664   20734641.1394   20734637.933
        58.0004         53.0004
 -20451772.33849 -15857465.09349  20501173.9514   20501180.5114   20501173.830
        58.0004         54.0004
  -2881843.03447  -2209379.74546  24654235.5114   24654242.8054   24654235.684
        42.0004         37.0004
 26  2 22  0 12  0.0000000  0  9G16G04G27G28G09G29G31G26G18
 -23969083.17648 -18620785.82748  20176094.8634   20176098.0614   20176095.113
        53.0004         49.0004
 -15229941.42248 -11817640.06447  21624247.4264   21624252.3884   21624247.375
        50.0004         45.0004
 -10174430.51848  -7880876.50648  22539433.7804   22539441.2214   22539433.748
        53.0004         48.0004
 -12660217.09248  -9813576.19447  22729117.8354   22729122.6774   22729117.612
        48.0004         43.0004
  -2743310.91248  -2093869.85247  23270190.0834   23270196.8914   23270190.614
        50.0004         45.0004
  -2240936.84847  -1738349.01347  24367694.0174   24367699.9754   24367694.018
        47.0004         43.0004
 -19397136.11349 -15062559.09448  20742902.8824   20742905.6774   20742902.527
        58.0004         53.0004
 -20416215.74349 -15829758.68849  20507940.0704   20507946.6614   20507940.153
        58.0004         54.0004
  -2945554.37047  -2259024.83146  24642112.7634   24642119.3834   24642111.042
        42.0004         37.0004
 26  2 22  0 12 30.0000000  0  9G16G04G27G28G09G29G31G26G18
 -23998798.37248 -18643940.53448  20170439.9744   20170443.4134   20170440.176
        53.0004         49.0004
 -15261681.60548 -11842372.68547  21618207.0284   21618212.4664   21618206.800
        50.0004         45.0004
 -10284830.78448  -7966902.69848  22518425.5654   22518432.5494   22518425.427
        53.0004         48.0004
 -12579788.29248  -9750904.49747  22744423.5414   22744427.5744   22744422.712
        48.0004         43.0004
  -2820982.54148  -2154393.19247  23255409.4744   23255416.6394   23255409.515
        50.0004         46.0004
  -2147689.54047  -1665688.95647  24385437.7964   24385443.6004   24385438.011
        47.0004         43.0004
 -19353319.92549 -15028416.63648  20751240.9514   20751243.5804   20751240.667
        58.0004         53.0004
 -20380319.90849 -15801787.94049  20514770.6514   20514777.2564   20514770.162
        58.0004         54.0004
  -3008951.30947  -2308424.94646  24630048.0224   24630056.1204   24630046.920
        42.0004         38.0004
 26  2 22  0 13  0.0000000  0  9G16G04G27G28G09G29G31G26G18
 -24028069.54348 -18666749.25248  20164869.8344   20164872.8474   20164870.059
        53.0004         48.0004
 -15292831.49948 -11866645.36147  21612279.8084   21612284.1174   21612279.565
        50.0004         45.0004
 -10394952.55048  -8052711.87148  22497470.3934   22497477.1214   22497470.294
        53.0004         48.0004
 -12499100.28548  -9688030.81447  22759778.2014   22759782.3354   22759777.788
        48.0004         43.0004
  -2898227.18448  -2214583.82347  23240710.8614   23240717.5204   23240710.347
        50.0004         46.0004
  -2054159.71647  -1592808.75047  24403236.4304   24403242.6764   24403235.738
        47.0004         43.0004
 -19309118.16149 -14993973.74848  20759652.2854   20759655.1024   20759651.747
        58.0004         53.0004
 -20344085.93349 -15773553.70849  20521666.0664   20521672.4724   20521666.039
        58.0004         54.0004
  -3072030.92747  -2357577.80546  24618043.2764   24618049.7574   24618043.814
        43.0004         38.0004
 26  2 22  0 13 30.0000000  0  9G16G04G27G28G09G29G31G26G18
 -24056896.69248 -18689211.96948  20159384.2864   20159387.3514   20159384.636
        53.0004         49.0004
 -15323389.77248 -11890457.01647  21606464.5584   21606469.4284   21606464.903
        50.0004         46.0004
 -10504792.87048  -8138301.74448  22476568.3844   22476574.8144   22476568.177
        53.0004         48.0004
 -12418153.73148  -9624955.66847  22775181.3194   22775186.4454   22775180.848
        48.0004         43.0004
  -2975042.19248  -2274439.67847  23226093.2244   23226099.3914   23226093.275
        50.0004         46.0004
  -1960349.95447  -1519710.40747  24421087.4734   24421093.8264   24421087.462
        47.0004         43.0004
 -19264530.95949 -14959230.51448  20768136.9234   20768139.7104   20768136.806
        58.0004         53.0004
 -20307514.94049 -15745056.86549  20528625.1644   20528631.7864   20528625.212
        58.0004         54.0004
  -3134790.36447  -2406481.18446  24606101.3274   24606107.6724   24606100.980
        43.0004         38.0004
 26  2 22  0 14  0.0000000  0  9G16G04G27G28G09G29G31G26G18
 -24085280.22848 -18711329.01148  20153983.0434   20153986.5324   20153983.094
        53.0004         49.0004
 -15353355.20948 -11913806.72747  21600762.2234   21600767.2934   21600762.387
        50.0004         45.0004
 -10614349.10048  -8223670.23848  22455720.5414   22455727.5584   22455720.467
        53.0004         48.0004
 -12336949.53848  -9561679.76047  22790632.9034   22790638.8774   22790633.359
        48.0004         43.0004
  -3051425.20348  -2333958.90647  23211558.2234   23211564.6314   23211558.107
        50.0004         46.0004
  -1866263.23847  -1446396.24347  24438992.5644   24438998.5644   24438992.542
        47.0004         43.0004
 -19219558.52349 -14924187.09648  20776694.8204   20776697.6414   20776694.435
        58.0004         53.0004
 -20270608.27749 -15716298.46149  20535648.3264   20535654.9324   20535648.346
        58.0004         54.0004
  -3197227.01747  -2455133.04546  24594220.4574   24594228.9484   24594218.919
        43.0004         38.0004
 26  2 22  0 14 30.0000000  0  9G16G04G27G28G09G29G31G26G18
 -24113220.20848 -18733100.43548  20148666.2584   20148669.4074   20148666.436
        53.0004         49.0004
 -15382726.54448 -11936693.50247  21595173.0234   21595178.2544   21595173.141
        50.0004         45.0004
 -10723618.31148  -8308815.08048  22434927.3564   22434934.4174   22434927.042
        53.0004         48.0004
 -12255488.42648  -9498203.65347  22806135.4114   22806140.5234   22806135.268
        48.0004         43.0004
  -3127373.65948  -2393139.51247  23197105.8684   23197112.1054   23197105.612
        50.0004         46.0004
  -1771901.90147  -1372868.09547  24456948.5114   24456955.0414   24456948.560
        47.0004         43.0004
 -19174201.26249 -14888843.81748  20785326.1714   20785328.7964   20785325.779
        58.0004         53.0004
 -20233367.05449 -15687279.36449  20542735.0514   20542741.7544   20542734.916
        58.0004         54.0004
  -3259337.95247  -2503531.10146  24582400.2184   24582408.9844   24582400.112
        43.0004         38.0004
 26  2 22  0 15  0.0000000  0  9G16G04G27G28G09G29G31G26G18
 -24140716.41048 -18754526.05948  20143433.9364   20143437.0674   20143434.012
        53.0004         49.0004
 -15411502.51548 -11959116.36147  21589697.0814   21589702.3174   21589696.910
        50.0004         45.0004
 -10832597.78148  -8393734.14448  22414189.1714   22414195.9544   22414189.499
        53.0004         48.0004
 -12173771.25148  -9434528.02347  22821684.8934   22821690.0404   22821685.681
        48.0004         43.0004
  -3202885.03648  -2451979.54347  23182736.4514   23182742.6034   23182736.969
        51.0004         46.0004
  -1677268.73747  -1299128.14747  24474956.0894   24474963.3694   24474956.536
        47.0004         42.0004
 -19128459.46049 -14853200.89748  20794030.5474   20794033.2194   20794030.190
        58.0004         53.0004
 -20195792.47849 -15658000.50949  20549885.3654   20549892.0934   20549885.105
        58.0004         54.0004
  -3321120.53947  -2551673.31546  24570643.8174   24570651.5534   24570643.725
        43.0004         38.0004
 26  2 22  0 15 30.0000000  0  9G16G04G27G28G09G29G31G26G18
 -24167769.40948 -18775606.32548  20138285.8264   20138289.2094   20138286.312
        53.0004         49.0004
 -15439681.96848 -11981074.39747  21584335.4104   21584340.1004   21584334.781
        50.0004         46.0004
 -10941284.60148  -8478425.16348  22393506.2054   22393513.5564   22393506.563
        53.0004         49.0004
 -12091798.76048  -9370653.46347  22837285.1134   22837290.4934   22837284.947
        48.0004         43.0004
  -3277956.84348  -2510477.04347  23168450.4154   23168456.9164   23168450.467
        51.0004         46.0004
  -1582366.14647  -1225178.26247  24493016.3444   24493023.3974   24493016.082
        47.0004         42.0004
 -19082333.29349 -14817258.47548  20802808.0614   20802810.8504   20802807.753
        58.0004         53.0004
 -20157885.75449 -15628462.83349  20557098.7104   20557105.3364   20557098.690
        58.0004         54.0004
  -3382571.94747  -2599557.46446  24558950.2714   24558956.7734   24558950.011
        43.0004         38.0004
 26  2 22  0 16  0.0000000  0  9G16G04G27G28G09G29G31G26G18
 -24194379.23148 -18796341.26148  20133222.3044   20133225.8194   20133222.456
        53.0004         49.0004
 -15467263.64348 -12002566.63547  21579086.9324   21579091.5664   21579085.990
        50.0004         46.0004
 -11049676.04748  -8562886.02148  22372880.4754   22372887.5054   22372879.990
        53.0004         49.0004
 -12009571.78147  -9306580.59647  22852932.5724   22852937.8404   22852931.932
        47.0004         43.0004
  -3352586.60348  -2568630.08147  23154249.1804   23154255.4534   23154249.814
        51.0004         46.0004
  -1487197.02547  -1151020.69847  24511127.1344   24511134.0344   24511127.625
        47.0004         42.0004
 -19035823.27249 -14781016.94548  20811658.8214   20811661.3764   20811658.411
        58.0004         53.0004
 -20119648.07349 -15598667.27349  20564375.2384   20564381.7884   20564374.878
        58.0004         54.0004
  -3443689.45347  -2647181.45246  24547318.2894   24547326.3424   24547318.772
        43.0004         38.0004
 26  2 22  0 16 30.0000000  0  9G16G04G27G28G09G29G31G26G18
 -24220546.08648 -18816731.03148  20128242.8454   20128246.3794   20128243.190
        53.0004         49.0004
 -15494246.44748 -12023592.22147  21573951.3984   21573956.1604   21573952.324
        50.0004         46.0004
 -11157769.29448  -8647114.51648  22352310.6844   22352317.8954   22352310.587
        53.0004         49.0004
 -11927091.09747  -9242310.03047  22868627.8144   22868633.1344   22868627.364
        47.0004         43.0004
  -3426771.82448  -2626436.75847  23140131.1434   23140137.5124   23140132.351
        50.0004         46.0004
  -1391764.07647  -1076657.54447  24529286.5824   24529293.5224   24529287.015
        47.0004         42.0004
 -18988929.66349 -14744476.51448  20820582.3524   20820585.1354   20820582.045
        57.0004         53.0004
 -20081080.63349 -15568614.75449  20571714.3924   20571721.2014   20571714.284
        58.0004         54.0004
  -3504470.33047  -2694543.13846  24535752.2074   24535760.6084   24535753.895
        43.0004         38.0004
 26  2 22  0 17  0.0000000  0  9G16G04G27G28G09G29G31G26G18
 -24246270.10548 -18836775.72848  20123347.9034   20123350.9954   20123348.175
        53.0004         49.0004
 -15520629.15748 -12044150.20447  21568931.2904   21568936.1924   21568931.062
        50.0004         46.0004
 -11265561.49848  -8731108.42548  22331798.8804   22331805.7884   22331798.542
        53.0004         49.0004
 -11844357.51847  -9177842.39847  22884371.3624   22884376.4934   22884370.913
        47.0004         43.0004
  -3500510.00248  -2683895.06447  23126100.0254   23126105.9794   23126099.898
        51.0004         46.0004
  -1296069.56147  -1002090.58147  24547497.1134   24547504.2014   24547496.930
        47.0004         42.0004
 -18941652.87349 -14707637.50248  20829578.7384   20829581.6394   20829578.620
        57.0004         53.0004
 -20042184.57549 -15538306.16349  20579116.2384   20579122.7514   20579116.100
        58.0004         54.0004
  -3564911.78047  -2741640.36446  24524251.9214   24524259.7924   24524251.529
        43.0004         39.0004
 26  2 22  0 17 30.0000000  0  9G16G04G27G28G09G29G31G26G18
 -24271551.79248 -18856475.75548  20118536.7514   20118539.9994   20118536.920
        53.0004         49.0004
 -15546410.77448 -12064239.80047  21564025.5984   21564030.2234   21564025.188
        50.0004         46.0004
 -11373050.03949  -8814865.70948  22311344.6464   22311351.7124   22311345.144
        54.0004         49.0004
 -11761371.95847  -9113178.42347  22900162.9764   22900167.9364   22900162.454
        47.0004         43.0004
  -3573798.82648  -2741003.23247  23112153.3584   23112159.7374   23112152.645
        51.0004         46.0004
  -1200116.74247   -927322.33847  24565755.8864   24565763.4804   24565755.441
        47.0004         42.0004
 -18893993.45849 -14670500.34748  20838648.1394   20838651.0684   20838647.895
        57.0004         53.0004
 -20002961.25749 -15507742.57049  20586580.0354   20586586.5524   20586579.984
        58.0004         54.0004
  -3625011.26947  -2788471.09646  24512814.5814   24512822.7524   24512813.872
        43.0004         39.0004
 26  2 22  0 18  0.0000000  0  9G16G04G27G28G09G29G31G26G18
 -24296391.09548 -18875831.07148  20113809.8044   20113813.2694   20113810.397
        53.0004         49.0004
 -15571589.99748 -12083859.99647  21559234.5554   21559238.5134   21559234.001
        50.0004         46.0004
 -11480231.88049  -8898384.00848  22290948.1674   22290955.4614   22290948.176
        54.0004         49.0004
 -11678135.04547  -9048318.57047  22916002.0254   22916008.1614   22916002.350
        47.0004         43.0004
  -3646635.60348  -2797759.15147  23098292.7724   23098299.4654   23098292.623
        51.0004         46.0004
  -1103907.77347   -852354.50347  24584064.6034   24584072.4434   24584065.829
        47.0004         42.0004
 -18845951.53649 -14633065.12248  20847790.1814   20847793.1634   20847789.570
        57.0004         53.0004
 -19963411.66449 -15476924.73649  20594105.9094   20594112.7344   20594105.793
        58.0004         54.0004
  -3684765.78947  -2835033.04046  24501442.9354   24501451.3534   24501443.320
        43.0004         39.0004
 26  2 22  0 18 30.0000000  0  9G16G04G27G28G09G29G31G26G18
 -24320788.17648 -18894841.79848  20109167.6264   20109170.7964   20109168.023
        53.0004         49.0004
 -15596165.98148 -12103010.13847  21554557.4144   21554562.9464   21554557.029
        50.0004         46.0004
 -11587104.47149  -8981661.34148  22270610.9844   22270617.9544   22270611.150
        54.0004         49.0004
 -11594647.83547  -8983263.70147  22931889.8874   22931895.1344   22931889.566
        47.0004         43.0004
  -3719018.13548  -2854161.12047  23084519.9404   23084525.4194   23084519.933
        51.0004         46.0004
  -1007445.13847   -777188.98547  24602421.3074   24602428.7614   24602420.774
        47.0004         42.0004
 -18797527.51449 -14595332.15848  20857004.8974   20857007.9984   20857004.699
        57.0004         53.0004
 -19923537.19549 -15445853.75449  20601693.9944   20601700.7094   20601693.986
        58.0004         54.0004
  -3744172.93847  -2881324.31046  24490138.8084   24490146.3124   24490140.150
        43.0004         39.0004
 26  2 22  0 19  0.0000000  0  9G16G04G27G28G09G29G31G26G18
 -24344743.14348 -18913508.01448  20104609.1554   20104612.0264   20104609.100
        53.0004         49.0004
 -15620137.52248 -12121689.28047  21549995.7424   21550000.7544   21549995.356
        50.0004         46.0004
 -11693664.88749  -9064695.41348  22250332.8124   22250340.0734   22250333.000
        54.0004         49.0004
 -11510911.03347  -8918014.33347  22947824.1624   22947830.3414   22947824.054
        47.0004         43.0004
  -3790943.85848  -2910207.12647  23070832.4624   23070838.3874   23070832.188
        51.0004         46.0004
   -910731.82147   -701828.15547  24620825.0824   24620832.6514   24620824.734
        47.0004         42.0004
 -18748721.61349 -14557301.63048  20866292.3164   20866295.5804   20866292.301
        57.0004         53.0004
 -19883338.87649 -15414530.42549  20609343.4834   20609350.1324   20609343.301
        58.0004         54.0004
  -3803229.82747  -2927342.66646  24478901.0764   24478908.6054   24478898.663
        43.0004         38.0004
 26  2 22  0 19 30.0000000  0  9G16G04G27G28G09G29G31G26G18
 -24368256.38648 -18931830.04048  20100134.3804   20100137.9384   20100134.857
        53.0004         49.0004
 -15643503.71148 -12139896.71847  21545548.7804   21545554.7064   21545548.397
        51.0004         46.0004
 -11799910.47149  -9147484.16248  22230115.2364   22230122.3824   22230114.734
        54.0004         49.0004
 -11426925.56847  -8852571.19647  22963806.8024   22963811.1774   22963806.919
        47.0004         43.0004
  -3862410.45948  -2965895.38047  23057233.0364   23057239.1044   23057232.900
        51.0004         46.0004
   -813770.08647   -626273.74547  24639276.1594   24639284.2394   24639275.874
        47.0004         42.0004
 -18699534.41749 -14518973.99648  20875652.5944   20875655.1794   20875652.525
        57.0004         53.0004
 -19842818.03649 -15382955.77149  20617054.4494   20617061.0704   20617054.357
        58.0004         54.0004
  -3861933.89947  -2973086.10146  24467730.0084   24467736.7014   24467729.436
        43.0004         39.0004
 26  2 22  0 20  0.0000000  0  9G16G04G27G28G09G29G31G26G18
 -24391328.16648 -18949808.06148  20095743.8424   20095747.3614   20095744.464
        53.0004         49.0004
 -15666263.46148 -12157631.60847  21541217.8364   21541222.4114   21541217.809
        51.0004         46.0004
 -11905838.33049  -9230025.34248  22209957.9694   22209964.9404   22209958.033
        54.0004         49.0004
 -11342692.23447  -8786934.93447  22979835.4254   22979841.1954   22979835.624
        47.0004         43.0004
  -3933415.41148  -3021223.91847  23043720.9524   23043727.4744   23043721.288
        51.0004         46.0004
   -716562.95647   -550528.13346  24657773.4464   24657781.5114   24657772.262
        46.0004         41.0004
 -18649966.38949 -14480349.61148  20885085.0994   20885087.6904   20885084.693
        57.0004         53.0004
 -19801975.77949 -15351130.66249  20624826.4784   20624833.2354   20624826.554
        58.0004         54.0004
  -3920282.35447  -3018552.42046  24456625.9234   24456633.9584   24456625.839
        43.0004         39.0004
 26  2 22  0 20 30.0000000  0  9G16G04G27G28G09G29G31G26G18
 -24413958.81348 -18967442.34148  20091437.5314   20091440.9694   20091437.989
        53.0004         49.0004
 -15688415.86148 -12174893.23747  21537002.7014   21537007.8074   21537002.547
        51.0004         46.0004
 -12011445.83149  -9312316.89048  22189861.6934   22189868.5254   22189861.248
        54.0004         49.0004
 -11258211.99347  -8721106.26747  22995912.0144   22995917.0734   22995911.107
        47.0004         43.0004
  -4003956.46848  -3076190.96947  23030297.6744   23030303.9124   23030298.472
        51.0004         46.0004
   -619112.95047   -474593.28246  24676318.7474   24676326.1034   24676317.814
        46.0004         41.0004
 -18600017.87149 -14441428.72648  20894589.9694   20894592.7724   20894589.630
        57.0004         53.0004
 -19760813.38949 -15319056.10449  20632659.4074   20632666.0764   20632659.393
        58.0004         54.0004
  -3978272.65347  -3063739.67846  24445591.0564   24445598.5074   24445591.619
        43.0004         39.0004
 26  2 22  0 21  0.0000000  0  9G16G04G27G28G09G29G31G26G18
 -24436148.69848 -18984733.17448  20087215.1924   20087218.6364   20087215.493
        53.0004         49.0004
 -15709959.87248 -12191680.79447  21532903.2484   21532908.7294   21532902.857
        50.0004         46.0004
 -12116730.08449  -9394356.54648  22169826.5014   22169834.0084   22169827.115
        54.0004         50.0004
 -11173485.52647  -8655085.72947  23012035.4594   23012039.9454   23012034.969
        47.0004         43.0004
  -4074031.06148  -3130794.53147  23016962.6734   23016969.5454   23016962.927
        51.0004         47.0004
   -521422.51947   -398471.06147  24694908.6984   24694916.4544   24694908.543
        46.0004         42.0004
 -18549689.31349 -14402211.70148  20904167.0174   20904169.8164   20904166.681
        57.0004         53.0004
 -19719331.95349 -15286732.94549  20640552.9974   20640559.8864   20640553.120
        58.0004         54.0004
  -4035902.01247  -3108645.65946  24434624.3464   24434632.8184   24434623.696
        43.0004         39.0004
 26  2 22  0 21 30.0000000  0  9G16G04G27G28G09G29G31G26G18
 -24457897.83948 -19001680.56748  20083076.3944   20083079.8794   20083076.725
        53.0004         49.0004
 -15730894.62248 -12207993.60547  21528918.7104   21528924.5404   21528919.195
        51.0004         46.0004
 -12221688.37049  -9476142.21148  22149854.1154   22149860.8024   22149853.859
        54.0004         50.0004
 -11088513.79947  -8588874.07647  23028204.4514   23028209.5954   23028203.843
        47.0004         43.0004
  -4143636.90948  -3185032.84047  23003717.5574   23003723.6814   23003717.432
        51.0004         47.0004
   -423494.27447   -322163.53347  24713543.8524   24713551.8484   24713543.035
        46.0004         42.0004
 -18498981.21349 -14362698.93648  20913816.2614   20913819.5064   20913815.976
        57.0004         53.0004
 -19677532.69149 -15254162.12549  20648507.2414   20648513.8424   20648507.175
        58.0004         54.0004
  -4093167.81347  -3153268.37046  24423728.0014   24423735.4974   24423727.344
        43.0004         39.0004
 26  2 22  0 22  0.0000000  0  9G16G04G27G28G09G29G31G26G18
 -24479206.88848 -19018285.02748  20079021.6174   20079024.9134   20079021.832
        53.0004         49.0004
 -15751219.31148 -12223831.04047  21525052.2504   21525057.0054   21525051.540
        51.0004         46.0004
 -12326318.07749  -9557671.84448  22129943.4124   22129950.5074   22129943.475
        54.0004         50.0004
 -11003297.84047  -8522472.11847  23044420.9624   23044426.3064   23044420.558
        47.0004         43.0004
  -4212771.77348  -3238904.14647  22990561.0304   22990568.0824   22990560.824
        52.0004         47.0004
   -325331.09247   -245672.94247  24732224.4294   24732232.0424   24732223.040
        46.0004         42.0004
 -18447893.70749 -14322890.54248  20923538.2884   20923541.4104   20923538.277
        57.0004         53.0004
 -19635416.93949 -15221344.69649  20656521.7004   20656528.3874   20656521.769
        58.0004         54.0004
  -4150067.58347  -3197605.84746  24412899.4724   24412907.2054   24412898.572
        43.0004         39.0004
 26  2 22  0 22 30.0000000  0  9G16G04G27G28G09G29G31G26G18
 -24500075.72248 -19034546.47048  20075050.4104   20075053.7254   20075050.421
        53.0004         49.0004
 -15770932.86148 -12239192.26947  21521300.4134   21521305.2224   21521300.184
        51.0004         46.0004
 -12430616.26449  -9638943.15348  22110096.5884   22110103.1324   22110096.285
        54.0004         50.0004
 -10917838.29947  -8455880.35747  23060683.1734   23060688.5994   23060683.001
        47.0004         42.0004
  -4281433.16848  -3292406.51947  22977494.8334   22977501.9964   22977494.793
        51.0004         47.0004
   -226935.35447   -169001.12947  24750948.5954   24750955.7774   24750947.524
        46.0004         42.0004
 -18396427.12449 -14282786.75148  20933332.3634   20933335.2094   20933332.149
        57.0004         53.0004
 -19592985.67749 -15188281.40949  20664596.1644   20664602.6394   20664596.232
        58.0004         54.0004
  -4206598.47147  -3241655.89346  24402141.8534   24402150.0774   24402142.137
        43.0004         39.0004
 26  2 22  0 23  0.0000000  0  9G16G04G27G28G09G29G31G26G18
 -24520504.87148 -19050465.29448  20071162.7224   20071165.9174   20071163.234
        53.0004         49.0004
 -15790034.60848 -12254076.75547  21517666.1224   21517670.7554   21517665.201
        51.0004         46.0004
 -12534580.37949  -9719954.14848  22090312.8254   22090319.4584   22090313.013
        54.0004         50.0004
 -10832136.21047  -8389099.60947  23076991.8344   23076996.9814   23076991.347
        47.0004         42.0004
  -4349618.81448  -3345538.18747  22964520.1174   22964526.5584   22964519.317
        51.0004         47.0004
   -128309.86747    -92150.29647  24769716.6074   24769724.4264   24769716.685
        46.0004         42.0004
 -18344582.37249 -14242388.27948  20943197.7514   20943200.7644   20943197.474
        57.0004         53.0004
 -19550240.26749 -15154973.34249  20672730.2964   20672736.8194   20672730.437
        58.0004         54.0004
  -4262758.05547  -3285416.59546  24391456.1934   24391461.4384   24391455.330
        43.0004         39.0004
 26  2 22  0 23 30.0000000  0  9G16G04G27G28G09G29G31G26G18
 -24540494.56448 -19066041.69548  20067358.9474   20067362.1574   20067359.337
        53.0004         49.0004
 -15808523.61948 -12268483.79347  21514147.5574   21514151.8344   21514146.886
        51.0004         46.0004
 -12638207.57049  -9800702.59948  22070592.6074   22070599.6604   22070592.688
        54.0004         50.0004
 -10746192.41347  -8322130.49647  23093346.1914   23093350.6874   23093346.334
        47.0004         42.0004
  -4417326.40948  -3398297.34447  22951635.9664   22951642.3344   22951635.181
        52.0004         47.0004
    -29457.07347    -15122.34047  24788527.4434   24788535.0474   24788527.783
        46.0004         42.0004
 -18292359.90149 -14201695.48248  20953135.6454   20953138.7274   20953135.367
        57.0004         53.0004
 -19507181.81649 -15121421.33649  20680924.0574   20680930.8274   20680923.982
        58.0004         54.0004
  -4318543.68147  -3328885.90846  24380839.6344   24380846.8774   24380839.237
        43.0004         39.0004
 26  2 22  0 24  0.0000000  0  9G16G04G27G28G09G29G31G26G18
 -24560045.02048 -19081275.81648  20063638.5634   20063641.9364   20063639.045
        53.0004         49.0004
 -15826399.10648 -12282412.74947  21510745.5294   21510750.6504   21510745.594
        51.0004         46.0004
 -12741495.08949  -9881186.36748  22050937.7104   22050945.0144   22050937.963
        54.0004         50.0004
 -10660007.81447  -8254973.75047  23109746.2864   23109751.5054   23109746.462
        47.0004         42.0004
  -4484553.53348  -3450682.10047  22938842.7714   22938848.9394   22938843.120
        51.0004         47.0004
     69620.30347     62080.60347  24807382.0904   24807389.6654   24807382.328
        46.0004         42.0004
 -18239759.90749 -14160708.52548  20963144.9244   20963148.1404   20963144.736
        57.0004         53.0004
 -19463811.53449 -15087626.35249  20689177.1614   20689184.0664   20689177.266
        58.0004         54.0004
  -4373952.64547  -3372061.69146  24370295.4204   24370303.5304   24370296.484
        43.0004         39.0004
 26  2 22  0 24 30.0000000  0  9G16G04G27G28G09G29G31G26G18
 -24579156.75648 -19096168.08548  20060001.4864   20060004.7934   20060001.979
        53.0004         49.0004
 -15843660.31648 -12295863.05947  21507460.9894   21507466.2554   21507461.299
        51.0004         46.0004
 -12844440.34749  -9961403.44048  22031347.7324   22031355.2674   22031348.017
        55.0004         50.0004
 -10573583.39147  -8187630.14447  23126192.9964   23126198.9874   23126192.276
        47.0004         42.0004
  -4551298.04748  -3502690.79647  22926141.8444   22926148.4984   22926141.725
        52.0004         47.0004
    168919.93447    139456.72647  24826277.6254   24826285.4354   24826277.868
        47.0004         42.0004
 -18186783.08549 -14119427.95048  20973226.0904   20973229.2564   20973226.012
        57.0004         53.0004
 -19420130.64849 -15053589.34149  20697489.3934   20697495.9634   20697489.330
        58.0004         54.0004
  -4428982.53547  -3414942.09546  24359825.0194   24359831.2354   24359825.856
        43.0004         39.0004
 26  2 22  0 25  0.0000000  0  9G16G04G27G28G09G29G31G26G18
 -24597830.13648 -19110718.77848  20056448.5484   20056451.3614   20056448.582
        53.0004         49.0004
 -15860306.45248 -12308834.08547  21504293.6794   21504298.6234   21504292.749
        51.0004         46.0004
 -12947040.51949 -10041351.60648  22011823.7554   22011830.6944   22011824.226
        55.0004         50.0004
 -10486919.93447  -8120100.27047  23142684.7374   23142690.4654   23142684.600
        47.0004         42.0004
  -4617557.52548  -3554321.53647  22913532.7334   22913539.5284   22913532.044
        52.0004         47.0004
    268439.22847    217004.04047  24845215.8164   24845223.4384   24845215.116
        47.0004         42.0004
 -18133429.71049 -14077853.94748  20983378.9254   20983382.0384   20983378.800
        57.0004         53.0004
 -19376140.25049 -15019311.14649  20705860.4154   20705867.1814   20705860.268
        58.0004         54.0004
  -4483630.63347  -3457525.00346  24349425.5264   24349432.9404   24349425.644
        43.0004         38.0004
 26  2 22  0 25 30.0000000  0  9G16G04G27G28G09G29G31G26G18
 -24616065.51548 -19124928.17248  20052977.9824   20052981.2614   20052978.263
        53.0004         49.0004
 -15876336.85448 -12321325.31947  21501243.0734   21501247.8654   21501242.451
        51.0004         46.0004
 -13049292.97449 -10121028.83548  21992365.8764   21992372.6494   21992365.718
        55.0004         50.0004
 -10400018.43447  -8052384.91347  23159222.0174   23159226.5664   23159220.920
        46.0004         42.0004
  -4683329.82348  -3605572.65747  22901016.8194   22901023.2264   22901016.574
        52.0004         47.0004
    368174.88047    294719.93547  24864195.4234   24864202.5394   24864195.402
        47.0004         42.0004
 -18079700.50749 -14035987.08748  20993603.4684   20993606.4574   20993603.117
        57.0004         53.0004
 -19331841.62749 -14984792.77849  20714290.3224   20714297.2374   20714290.182
        58.0004         54.0004
  -4537894.55847  -3499808.54546  24339098.8414   24339107.5244   24339099.770
        43.0004         38.0004
 26  2 22  0 26  0.0000000  0  9G16G04G27G28G09G29G31G26G18
 -24633863.21948 -19138796.51648  20049591.2364   20049594.4314   20049591.850
        53.0004         49.0004
 -15891750.84948 -12333336.24047  21498310.1924   21498314.9314   21498309.611
        51.0004         46.0004
 -13151195.02549 -10200433.02348  21972974.8324   21972981.4364   21972974.264
        55.0004         50.0004
 -10312879.87947  -7984484.84547  23175803.5994   23175808.4894   23175802.745
        46.0004         42.0004
  -4748612.66148  -3656442.38247  22888593.7604   22888600.3074   22888593.469
        52.0004         47.0004
    468124.67247    372602.71647  24883215.1254   24883222.6984   24883215.088
        47.0004         42.0004
 -18025595.84549 -13993827.65548  21003899.2194   21003902.3384   21003899.103
        57.0004         53.0004
 -19287235.94549 -14950035.13749  20722778.4964   20722785.2784   20722778.345
        58.0004         54.0004
  -4591771.67247  -3541790.68446  24328846.2714   24328853.9854   24328846.462
        43.0004         38.0004
 26  2 22  0 26 30.0000000  0  9G16G04G27G28G09G29G31G26G18
 -24651223.53448 -19152324.03548  20046287.8374   20046291.0144   20046288.045
        53.0004         49.0004
 -15906547.65348 -12344866.22747  21495493.6374   21495499.4964   21495493.444
        51.0004         46.0004
 -13252743.88249 -10279561.99348  21953649.9304   21953657.6124   21953650.168
        55.0004         50.0004
 -10225505.08847  -7916400.69347  23192429.4264   23192435.4244   23192429.397
        46.0004         42.0004
  -4813403.69548  -3706928.88547  22876264.4604   22876270.6084   22876264.231
        52.0004         47.0004
    568286.23447    450650.48747  24902274.7204   24902282.3784   24902274.349
        46.0004         42.0004
 -17971116.03349 -13951375.90348  21014266.5364   21014269.4024   21014266.434
        57.0004         53.0004
 -19242324.29449 -14915039.06848  20731324.6874   20731331.5494   20731324.735
        58.0004         53.0004
  -4645259.43447  -3583469.44146  24318668.8944   24318675.8294   24318669.853
        43.0004         38.0004
 26  2 22  0 27  0.0000000  0  9G16G04G27G28G09G29G31G26G18
 -24668146.89948 -19165511.07548  20043067.2904   20043070.6394   20043067.740
        53.0004         49.0004
 -15920726.66448 -12355914.81947  21492795.5744   21492800.3234   21492794.924
        51.0004         46.0004
 -13353936.93949 -10358413.71248  21934393.8974   21934400.7614   21934394.062
        55.0004         50.0004
 -10137895.08747  -7848133.23746  23209101.2984   23209107.5954   23209101.003
        46.0004         41.0004
  -4877700.82048  -3757030.51747  22864028.8874   22864035.5244   22864029.421
        52.0004         47.0004
    668656.75347    528861.10446  24921374.6174   24921382.8034   24921373.875
        46.0004         41.0004
 -17916261.78849 -13908632.37248  21024705.0434   21024708.1614   21024704.860
        57.0004         53.0004
 -19197107.98349 -14879805.61348  20739929.1214   20739936.1674   20739928.891
