     2.11           OBSERVATION DATA    G (GPS)             RINEX VERSION / TYPE
teqc  2019Feb25     Observatoire de Pari20250225 00:53:36UTCPGM / RUN BY / DATE
Linux 2.6.32-573.12.1.x86_64|x86_64|gcc|Linux 64|=+         COMMENT
BIT 2 OF LLI FLAGS DATA COLLECTED UNDER A/S CONDITION       COMMENT
OPMT                                                        MARKER NAME
10001S006                                                   MARKER NUMBER
Pierre Uhrich       Observatoire de Paris                   OBSERVER / AGENCY
02942               ASHTECH Z-XII3T     1L01-1D04           REC # / TYPE / VERS
00019               3S-02-TSADM     NONE                    ANT # / TYPE
  4202777.3831   171367.9881  4778660.1844                  APPROX POSITION XYZ
        0.0000        0.0000        0.0000                  ANTENNA: DELTA H/E/N
     1     1                                                WAVELENGTH FACT L1/2
     7    L1    L2    C1    P1    P2    S1    S2            # / TYPES OF OBSERV
 SNR is mapped to RINEX snr flag value [0-9]                COMMENT
  L1 & L2: min(max(int(snr_dBHz/6), 0), 9)                  COMMENT
pseudorange smoothing corrections not applied               COMMENT
  2025     2    24     0     0    0.0000000     GPS         TIME OF FIRST OBS
                                                            END OF HEADER
 25  2 24  0  0  0.0000000  0  7G04G19G09G07G11G03G06
 -17263957.52346 -13439599.29347  20882328.553    20882329.0484   20882332.7294
        47.0004         43.9004
  -1169706.19643   -896263.40946  23578697.690    23578696.6494   23578698.4284
        38.5004         36.4004
 -22432413.18048 -17455811.73748  19976429.918    19976429.7924   19976434.2334
        54.7004         52.0004
  -5297182.40645  -4103579.58647  23259181.415    23259180.8194   23259184.1304
        45.3004         42.5004
  -6521858.78145  -5065939.95946  22513073.944    22513074.2994   22513077.7284
        43.6004         40.7004
  -3308229.50345  -2557542.51946  23256271.692    23256271.4954   23256276.7244
        44.1004         41.2004
 -12311024.77648  -9583340.49048  20813627.890    20813628.0904   20813633.5564
        53.6004         50.8004
 25  2 24  0  0 30.0000000  0  7G04G19G09G07G11G03G06
 -17208229.67546 -13396174.99847  20892933.333    20892933.7344   20892937.0314
        47.0004         44.0004
  -1072239.12743   -820315.08546  23597242.502    23597242.0664   23597244.1344
        38.5004         36.2004
 -22436647.37048 -17459111.10348  19975623.899    19975624.1424   19975628.5144
        54.7004         52.0004
  -5387434.67245  -4173905.96447  23242006.886    23242006.1924   23242009.5974
        45.3004         42.5004
  -6597484.44045  -5124869.02646  22498681.759    22498682.3534   22498686.9974
        43.7004         40.7004
  -3214936.78845  -2484846.93646  23274025.580    23274024.5114   23274029.8124
        44.1004         41.2004
 -12322367.26848  -9592178.80148  20811469.318    20811469.6674   20811474.9314
        53.5004         50.6004
 25  2 24  0  1  0.0000000  0  7G04G19G09G07G11G03G06
 -17152136.79846 -13352466.27547  20903608.169    20903608.4364   20903611.2524
        47.2004         44.0004
   -974566.52943   -744206.63345  23615830.493    23615830.8584   23615831.3554
        38.0004         35.5004
 -22440404.55248 -17462038.76748  19974908.870    19974909.2054   19974913.5234
        54.7004         52.0004
  -5477474.75445  -4244067.02047  23224871.810    23224871.8054   23224875.2434
        45.3004         42.5004
  -6672716.26245  -5183491.20646  22484366.338    22484367.0304   22484371.1184
        43.7004         41.1004
  -3121499.84745  -2412038.93646  23291802.403    23291804.7744   23291809.8314
        44.1004         41.2004
 -12333128.19548  -9600563.93748  20809421.191    20809421.9384   20809427.2254
        53.5004         50.6004
 25  2 24  0  1 30.0000000  0  7G04G19G09G07G11G03G06
 -17095680.75746 -13308474.55247  20914351.336    20914351.5064   20914354.5304
        47.0004         44.0004
   -876691.56543   -667940.46145  23634454.466    23634453.3024   23634455.2564
        37.6004         35.3004
 -22443685.01748 -17464594.96848  19974284.948    19974284.9524   19974289.2054
        54.7004         52.0004
  -5567300.30745  -4314060.91047  23207778.636    23207778.5224   23207781.9614
        45.1004         42.3004
  -6747551.78745  -5241804.58946  22470125.673    22470125.9054   22470130.2564
        43.9004         41.1004
  -3027919.37945  -2339119.11546  23309613.054    23309612.8064   23309618.7634
        44.2004         41.4004
 -12343306.67148  -9608495.21848  20807484.599    20807485.0934   20807490.1844
        53.5004         50.6004
 25  2 24  0  2  0.0000000  0  7G04G19G09G07G11G03G06
 -17038863.35646 -13264201.26247  20925162.996    20925163.2374   20925166.8984
        47.2004         44.0004
   -778617.83743   -591519.41545  23653117.579    23653117.3964   23653118.4864
        37.6004         35.7004
 -22446489.50648 -17466780.27648  19973751.282    19973751.3554   19973755.6134
        54.7004         52.2004
  -5656909.17545  -4383885.95047  23190725.538    23190726.0754   23190730.3344
        45.3004         42.3004
  -6821988.51445  -5299807.21046  22455961.234    22455961.2804   22455965.4514
        44.1004         41.2004
  -2934196.24145  -2266088.12846  23327448.027    23327447.9124   23327453.3034
        44.2004         41.2004
 -12352901.89548  -9615972.01848  20805658.453    20805659.0534   20805664.1854
        53.5004         50.6004
 25  2 24  0  2 30.0000000  0  7G04G19G09G07G11G03G06
 -16981686.39046 -13219647.78547  20936042.847    20936043.2754   20936047.2874
        47.2004         44.0004
   -680348.42043   -514945.91545  23671817.101    23671816.1304   23671819.3714
        37.6004         35.5004
 -22448818.59348 -17468595.14148  19973308.276    19973308.2144   19973312.3394
        54.8004         52.2004
  -5746298.19445  -4453539.68447  23173714.831    23173715.8324   23173719.7054
        45.3004         42.5004
  -6896024.00645  -5357497.17846  22441872.511    22441872.6734   22441876.1194
        44.1004         41.2004
  -2840331.28745  -2192946.60046  23345306.737    23345308.1694   23345315.0864
        44.1004         40.9004
 -12361913.11448  -9622993.74248  20803944.047    20803944.5174   20803949.5974
        53.5004         50.6004
 25  2 24  0  3  0.0000000  0  7G04G19G09G07G11G03G06
 -16924151.69646 -13174815.55747  20946991.937    20946992.0514   20946995.7614
        47.0004         44.0004
   -581886.99743   -438222.78646  23690554.092    23690552.6894   23690556.8024
        38.2004         36.0004
 -22450672.90348 -17470040.05048  19972955.267    19972955.1924   19972959.4234
        54.8004         52.2004
  -5835465.63545  -4523020.76547  23156747.300    23156747.7684   23156751.0314
        45.3004         42.3004
  -6969655.82345  -5414872.61146  22427861.641    22427861.9824   22427864.6214
        44.2004         41.4004
  -2746325.25445  -2119695.18746  23363198.733    23363198.8524   23363204.2504
        43.9004         41.1004
 -12370339.51848  -9629559.76748  20802340.512    20802340.9694   20802346.2314
        53.5004         50.8004
 25  2 24  0  3 30.0000000  0  7G04G19G09G07G11G03G06
 -16866261.09846 -13129705.99847  20958007.378    20958007.7684   20958011.8584
        47.0004         43.9004
   -483236.83043   -361352.59246  23709326.300    23709326.2304   23709329.4444
        38.7004         36.6004
 -22452053.05748 -17471115.48748  19972692.410    19972692.5154   19972696.8324
        54.8004         52.2004
  -5924408.84245  -4592327.12147  23139821.721    23139822.5204   23139825.3564
        45.3004         42.5004
  -7042881.50845  -5471931.57946  22413926.967    22413927.4694   22413929.9724
        44.2004         41.4004
  -2652179.00245  -2046334.49546  23381114.365    23381114.1614   23381119.5944
        44.1004         41.2004
 -12378180.38748  -9635669.53548  20800848.109    20800848.5954   20800853.9344
        53.5004         50.8004
 25  2 24  0  4  0.0000000  0  7G04G19G09G07G11G03G06
 -16808016.38446 -13084320.51247  20969091.054    20969091.5664   20969095.8714
        47.0004         43.9004
   -384401.42443   -284338.04446  23728135.971    23728133.8334   23728138.1914
        39.0004         36.7004
 -22452959.67848 -17471821.93748  19972519.841    19972519.9564   19972524.3714
        54.8004         52.2004
  -6013125.75645  -4661457.13347  23122940.783    23122940.5684   23122944.1324
        45.3004         42.5004
  -7115698.63145  -5528672.19346  22400071.156    22400070.8674   22400073.5174
        44.4004         41.6004
  -2557893.30145  -1972865.14546  23399054.765    23399055.5424   23399060.1784
        43.9004         40.7004
 -12385434.95748  -9641322.44948  20799467.630    20799467.8884   20799473.7564
        53.5004         50.6004
 25  2 24  0  4 30.0000000  0  7G04G19G09G07G11G03G06
 -16749419.41346 -13038660.53447  20980242.127    20980242.1514   20980246.3224
        47.0004         43.9004
   -285384.18843   -207181.80646  23746975.933    23746975.8434   23746981.0084
        39.2004         36.7004
 -22453393.42048 -17472159.91248  19972437.155    19972437.3604   19972441.9364
        54.8004         52.2004
  -6101613.99945  -4730408.97447  23106102.368    23106101.8484   23106105.8114
        45.5004         42.6004
  -7188104.79045  -5585092.55646  22386292.119    22386292.1674   22386294.9974
        44.6004         41.8004
  -2463468.96145  -1899287.75746  23417025.571    23417024.6204   23417030.3084
        43.7004         41.1004
 -12392102.54948  -9646517.97448  20798198.603    20798199.1774   20798204.9554
        53.5004         50.6004
 25  2 24  0  5  0.0000000  0  7G04G19G09G07G11G03G06
 -16690471.95246 -12992727.45347  20991459.360    20991459.8594   20991463.4404
        46.9004         43.9004
   -186188.40943   -129886.45446  23765853.721    23765853.0714   23765856.2084
        39.2004         36.7004
 -22453354.94248 -17472129.91748  19972444.448    19972444.5404   19972449.3434
        54.8004         52.2004
  -6189870.99845  -4799180.62247  23089308.163    23089307.1964   23089310.6344
        45.5004         42.6004
  -7260097.51345  -5641190.77046  22372591.590    22372592.8654   22372595.2364
        44.6004         41.8004
  -2368906.82445  -1825602.97746  23435017.128    23435018.4564   23435024.0764
        43.7004         40.9004
 -12398182.46948  -9651255.57848  20797042.039    20797042.3374   20797047.9924
        53.5004         50.8004
 25  2 24  0  5 30.0000000  0  7G04G19G09G07G11G03G06
 -16631175.89146 -12946522.73347  21002743.554    21002743.4134   21002746.8464
        46.9004         43.9004
    -86817.36543    -52454.54346  23784763.699    23784762.7594   23784766.4164
        39.2004         36.7004
 -22452844.88648 -17471732.46048  19972541.590    19972541.5044   19972546.2474
        54.8004         52.2004
  -6277894.52145  -4867770.34247  23072556.754    23072556.5704   23072559.7574
        45.5004         42.6004
  -7331674.39545  -5696964.96146  22358971.882    22358972.3144   22358974.7104
        44.8004         41.8004
  -2274207.71745  -1751811.49846  23453039.588    23453039.5344   23453045.1784
        43.7004         41.1004
 -12403674.04448  -9655534.72948  20795996.918    20795997.2694   20796003.0464
        53.5004         50.6004
 25  2 24  0  6  0.0000000  0  7G04G19G09G07G11G03G06
 -16571533.00846 -12900047.76447  21014092.918    21014093.0034   21014096.5694
        46.9004         43.9004
     12725.42543     25111.21546  23803705.794    23803703.6494   23803708.5054
        38.9004         36.4004
 -22451863.93548 -17470968.07848  19972728.499    19972728.4364   19972732.6814
        54.8004         52.2004
  -6365682.31345  -4936176.37447  23055850.849    23055850.8464   23055854.4734
        45.6004         42.6004
  -7402833.05145  -5752413.23846  22345430.383    22345430.9784   22345434.1754
        44.8004         41.9004
  -2179372.43245  -1677913.90946  23471087.213    23471087.4034   23471092.6844
        44.1004         41.4004
 -12408576.65748  -9659354.94948  20795064.316    20795064.5934   20795069.8404
        53.5004         50.8004
 25  2 24  0  6 30.0000000  0  7G04G19G09G07G11G03G06
 -16511545.15846 -12853303.99447  21025508.674    21025508.9314   21025512.1134
        46.9004         43.7004
    112436.77243    102808.31846  23822681.299    23822679.8144   23822684.0404
        38.7004         36.4004
 -22450412.80648 -17469837.32448  19973004.414    19973004.6484   19973008.8254
        54.8004         52.2004
  -6453231.60745  -5004396.55747  23039189.237    23039190.7274   23039194.8604
        45.6004         42.8004
  -7473571.06545  -5807533.76647  22331970.605    22331970.8164   22331973.4254
        44.9004         42.1004
  -2084401.79545  -1603910.83746  23489156.358    23489158.0584   23489164.6914
        44.1004         41.2004
 -12412889.66248  -9662715.73348  20794243.523    20794243.9244   20794249.2374
        53.6004         50.8004
 25  2 24  0  7  0.0000000  0  7G04G19G09G07G11G03G06
 -16451214.15546 -12806292.82247  21036988.851    21036989.2564   21036992.6424
        46.9004         43.7004
    212313.06043    180633.92546  23841686.066    23841684.4794   23841689.0924
        38.5004         36.0004
 -22448492.17248 -17468340.72248  19973369.822    19973369.9034   19973374.2894
        54.8004         52.2004
  -6540540.67445  -5072429.55847  23022575.172    23022576.7694   23022580.3234
        45.8004         43.0004
  -7543886.04545  -5862324.62646  22318589.193    22318589.1434   22318592.8484
        44.9004         41.9004
  -1989296.56445  -1529802.90546  23507257.713    23507256.1104   23507262.9664
        43.9004         40.9004
 -12416612.49048  -9665616.64148  20793535.454    20793535.7954   20793540.7794
        53.6004         50.8004
 25  2 24  0  7 30.0000000  0  7G04G19G09G07G11G03G06
 -16390541.83646 -12759015.70147  21048534.635    21048534.8184   21048538.4894
        46.9004         43.9004
    312351.00643    258585.48146  23860723.329    23860722.6344   23860725.8164
        38.3004         36.2004
 -22446102.74348 -17466478.82348  19973824.434    19973824.5754   19973829.0054
        54.7004         52.0004
  -6627606.78945  -5140273.24347  23006009.585    23006009.2504   23006012.0894
        46.0004         43.2004
  -7613775.56645  -5916783.97246  22305289.876    22305289.6174   22305293.0464
        44.8004         41.8004
  -1894057.62045  -1455590.76246  23525375.855    23525378.7284   23525385.3194
        43.6004         40.7004
 -12419744.59148  -9668057.23148  20792939.356    20792939.4814   20792944.7594
        53.6004         50.8004
 25  2 24  0  8  0.0000000  0  7G04G19G09G07G11G03G06
 -16329530.01546 -12711474.02747  21060144.905    21060144.9474   21060148.4574
        46.9004         43.9004
    412547.16943    336660.35845  23879789.947    23879788.5594   23879793.3414
        38.3004         35.9004
 -22443245.25748 -17464252.20148  19974368.120    19974368.0824   19974372.9184
        54.7004         52.2004
  -6714427.82145  -5207925.94747  22989487.201    22989487.1524   22989490.2744
        46.0004         43.2004
  -7683237.25145  -5970909.94346  22292071.428    22292072.0124   22292074.1454
        44.6004         41.6004
  -1798685.73945  -1381275.01446  23543527.233    23543527.6854   23543534.9984
        43.6004         40.7004
 -12422285.35748  -9670037.05448  20792455.464    20792456.0154   20792460.7774
        53.6004         50.8004
 25  2 24  0  8 30.0000000  0  7G04G19G09G07G11G03G06
 -16268180.52546 -12663669.23447  21071818.363    21071819.0164   21071822.4064
        46.9004         43.7004
    512898.33743    414856.02045  23898886.418    23898884.4214   23898889.0934
        38.2004         35.9004
 -22439920.44148 -17461661.43048  19975000.556    19975000.9494   19975005.8414
        54.7004         52.2004
  -6801001.12445  -5275385.62747  22973012.261    22973012.2744   22973016.4434
        46.2004         43.3004
  -7752268.69045  -6024700.66846  22278935.260    22278935.5864   22278938.0164
        44.6004         41.8004
  -1703181.73745  -1306856.35846  23561702.694    23561702.3394   23561708.8634
        43.6004         40.7004
 -12424234.28548  -9671555.70048  20792084.663    20792085.1264   20792090.1704
        53.6004         50.8004
 25  2 24  0  9  0.0000000  0  7G04G19G09G07G11G03G06
 -16206495.18746 -12615602.74047  21083557.254    21083557.5584   21083561.3124
        46.9004         43.7004
    613401.15143    493169.81445  23918010.521    23918009.8984   23918014.5214
        38.0004         35.7004
 -22436129.03548 -17458707.08248  19975722.511    19975722.4114   19975727.3114
        54.8004         52.2004
  -6887324.63345  -5342650.67047  22956586.070    22956586.2414   22956589.2704
        46.3004         43.5004
  -7820867.54645  -6078154.31046  22265881.361    22265881.4044   22265884.0954
        44.6004         41.8004
  -1607546.48545  -1232335.40046  23579900.773    23579901.6184   23579907.2434
        43.6004         40.7004
 -12425590.85448  -9672612.77148  20791826.824    20791826.9924   20791831.8774
        53.6004         50.8004
 25  2 24  0  9 30.0000000  0  7G04G19G09G07G11G03G06
 -16144475.85446 -12567275.99447  21095359.235    21095359.3744   21095363.1124
        46.7004         43.5004
    714052.05442    571599.01845  23937163.789    23937163.2064   23937167.8514
        37.5004         35.2004
 -22431871.76748 -17455389.72348  19976532.599    19976532.7364   19976537.2914
        54.8004         52.2004
  -6973395.92145  -5409719.17447  22940207.110    22940207.2564   22940210.4234
        46.3004         43.5004
  -7889031.40545  -6131269.00346  22252910.134    22252910.1514   22252912.9844
        44.6004         41.6004
  -1511780.77244  -1157712.79746  23598126.161    23598124.9134   23598130.4184
        43.4004         40.4004
 -12426354.59848  -9673207.90048  20791680.929    20791681.5644   20791686.6184
        53.6004         50.8004
 25  2 24  0 10  0.0000000  0  7G04G19G09G07G11G03G06
 -16082124.34146 -12518690.39947  21107224.436    21107224.5834   21107228.3564
        46.7004         43.7004
    814847.71442    650141.04645  23956344.748    23956343.2674   23956346.7154
        36.8004         34.5004
 -22427149.44448 -17451709.98548  19977431.409    19977431.2404   19977435.8204
        54.8004         52.2004
  -7059212.97145  -5476589.56047  22923875.409    22923876.3704   22923879.5324
        46.3004         43.5004
  -7956757.94145  -6184042.92246  22240022.060    22240022.1504   22240025.6624
        44.6004         41.8004
  -1415885.42544  -1082989.18146  23616371.651    23616373.8104   23616378.4524
        43.4004         40.6004
 -12426525.03648  -9673340.71248  20791649.096    20791649.0974   20791654.3504
        53.6004         50.8004
 25  2 24  0 10 30.0000000  0  7G04G19G09G07G11G03G06
 -16019442.47846 -12469847.39147  21119151.925    21119152.4134   21119155.5934
        46.7004         43.5004
    915784.96242    728793.38745  23975552.596    23975550.8654   23975554.7854
        36.1004         34.0004
 -22421962.80348 -17447668.44048  19978417.715    19978418.0634   19978422.6854
        54.8004         52.2004
  -7144773.51946  -5543260.06847  22907595.737    22907595.0904   22907598.0864
        46.5004         43.7004
  -8024044.78645  -6236474.21246  22227217.151    22227218.0484   22227221.1654
        44.6004         41.8004
  -1319861.22444  -1008165.17646  23634645.213    23634645.8564   23634651.5384
        43.2004         40.2004
 -12426101.69748  -9673010.83948  20791729.021    20791729.6094   20791734.9954
        53.6004         50.8004
 25  2 24  0 11  0.0000000  0  7G04G19G09G07G11G03G06
 -15956432.09046 -12420748.38947  21131142.477    21131142.8934   21131147.0554
        46.5004         43.5004
   1016860.60742    807553.56545  23994786.424    23994785.5404   23994787.9604
        35.7004         34.0004
 -22416312.62348 -17443265.69648  19979493.183    19979493.2504   19979497.7794
        54.7004         52.2004
  -7230074.61446  -5609728.40547  22891363.930    22891362.8444   22891366.6094
        46.7004         43.9004
  -8090889.59845  -6288561.06446  22214497.610    22214497.6504   22214500.1144
        44.6004         41.8004
  -1223709.04744   -933241.42946  23652942.324    23652942.8464   23652948.6144
        43.0004         40.2004
 -12425084.24848  -9672218.02348  20791922.652    20791923.1634   20791928.7764
        53.8004         51.0004
 25  2 24  0 11 30.0000000  0  7G04G19G09G07G11G03G06
 -15893095.03146 -12371394.83847  21143195.137    21143195.9034   21143199.0334
        46.7004         43.5004
   1118070.84442    886418.64845  24014046.929    24014045.0394   24014048.7044
        35.6004         33.8004
 -22410199.74348 -17438502.41148  19980656.142    19980656.5744   19980661.2394
        54.7004         52.2004
  -7315114.25746  -5675993.03847  22875180.237    22875180.4534   22875183.9354
        46.7004         43.9004
  -8157290.05845  -6340301.67546  22201861.721    22201861.9054   22201864.8504
        44.6004         41.8004
  -1127429.63044   -858218.54046  23671264.925    23671264.8234   23671269.1964
        42.7004         39.9004
 -12423472.22248  -9670961.90548  20792229.879    20792229.9754   20792235.5544
        53.8004         51.0004
 25  2 24  0 12  0.0000000  0  7G04G19G09G07G11G03G06
 -15829433.12346 -12321788.15247  21155310.368    21155309.9684   21155313.7734
        46.5004         43.7004
   1219412.53042    965386.12745  24033331.785    24033329.3914   24033333.5264
        35.6004         34.0004
 -22403624.91248 -17433379.16648  19981907.523    19981907.8264   19981912.3234
        54.7004         52.2004
  -7399890.22646  -5742052.19447  22859047.532    22859047.8914   22859050.9744
        46.7004         43.7004
  -8223243.82545  -6391694.21446  22189310.846    22189311.4504   22189314.2014
        44.6004         41.6004
  -1031023.79644   -783097.13746  23689610.064    23689610.3304   23689615.8284
        42.5004         39.9004
 -12421265.25248  -9669242.19648  20792649.572    20792649.9414   20792655.5484
        53.8004         50.8004
 25  2 24  0 12 30.0000000  0  7G04G19G09G07G11G03G06
 -15765448.15446 -12271929.74547  21167485.437    21167486.3744   21167489.8424
        46.7004         43.5004
   1320882.26842   1044453.40645  24052639.632    24052640.4774   24052644.8904
        35.7004         34.1004
 -22396589.00448 -17427896.63048  19983246.675    19983246.5794   19983251.3254
        54.8004         52.2004
  -7484400.39246  -5807904.24247  22842965.194    22842965.7494   22842969.4434
        46.5004         43.7004
  -8288748.57745  -6442736.86546  22176846.287    22176846.0954   22176849.8784
        44.6004         41.9004
   -934492.44644   -707877.93446  23707977.508    23707979.2304   23707984.8184
        42.5004         39.7004
 -12418463.00248  -9667058.63348  20793182.599    20793182.9524   20793188.8154
        53.6004         50.8004
 25  2 24  0 13  0.0000000  0  7G04G19G09G07G11G03G06
 -15701142.03146 -12221821.08147  21179723.296    21179722.9784   21179726.6034
        46.7004         43.5004
   1422476.86142   1123617.97545  24071974.424    24071973.9504   24071975.1844
        35.6004         33.6004
 -22389092.79748 -17422055.42848  19984672.787    19984673.0894   19984677.7454
        54.8004         52.2004
  -7568642.78046  -5873547.62747  22826933.653    22826934.2384   22826938.6144
        46.5004         43.5004
  -8353801.96045  -6493427.80346  22164467.279    22164467.5634   22164470.4564
        44.8004         41.8004
   -837836.35844   -632561.52146  23726372.776    23726372.1174   23726377.6084
        42.3004         39.5004
 -12415065.13448  -9664410.94948  20793828.894    20793829.6114   20793835.1684
        53.6004         50.8004
 25  2 24  0 13 30.0000000  0  7G04G19G09G07G11G03G06
 -15636516.50746 -12171463.54147  21192020.550    21192021.1504   21192024.9414
        46.5004         43.5004
   1524193.08142   1202877.30145  24091328.958    24091330.2124   24091331.2874
        35.2004         33.4004
 -22381137.11948 -17415856.19848  19986186.972    19986187.1564   19986191.6374
        54.8004         52.2004
  -7652614.36346  -5938979.99447  22810955.655    22810955.1144   22810958.7544
        46.5004         43.5004
  -8418401.70445  -6543765.25646  22152173.863    22152174.1394   22152177.3974
        44.6004         41.6004
   -741056.36244   -557148.58346  23744786.554    23744787.9894   23744794.1544
        42.0004         39.2004
 -12411071.34948  -9661298.92048  20794589.252    20794589.9604   20794595.3484
        53.6004         50.8004
 25  2 24  0 14  0.0000000  0  7G04G19G09G07G11G03G06
 -15571573.45646 -12120858.56147  21204379.215    21204379.4244   21204383.6774
        46.5004         43.5004
   1626027.52942   1282228.76245  24110707.933    24110706.2644   24110710.8744
        35.0004         33.4004
 -22372722.83648 -17409299.61148  19987788.190    19987788.4594   19987792.7584
        54.8004         52.2004
  -7736313.29346  -6004199.90547  22795027.763    22795028.2274   22795030.7184
        46.5004         43.5004
  -8482545.47545  -6593747.40746  22139967.456    22139967.6334   22139971.0794
        44.8004         41.8004
   -644153.30944   -481639.73246  23763228.203    23763228.7204   23763235.4314
        42.2004         39.5004
 -12406481.38048  -9657722.32148  20795463.292    20795463.4804   20795468.9934
        53.8004         51.0004
 25  2 24  0 14 30.0000000  0  7G04G19G09G07G11G03G06
 -15506314.67045 -12070007.56847  21216796.530    21216797.5074   21216801.2124
        46.3004         43.3004
   1727976.80142   1361669.70445  24130107.709    24130106.7724   24130109.0964
        34.7004         33.3004
 -22363850.80748 -17402386.33348  19989476.141    19989476.5074   19989480.9194
        54.7004         52.2004
  -7819737.45746  -6069205.70747  22779152.300    22779152.7514   22779156.4564
        46.5004         43.7004
  -8546231.03445  -6643372.50746  22127848.941    22127848.8624   22127851.9644
        44.8004         41.9004
   -547127.96344   -406035.60546  23781691.313    23781691.5144   23781698.3134
        42.2004         39.3004
 -12401294.94248  -9653680.94748  20796449.973    20796450.1404   20796455.9724
        53.8004         51.0004
 25  2 24  0 15  0.0000000  0  7G04G19G09G07G11G03G06
 -15440742.03745 -12018912.01547  21229274.587    21229275.1744   21229279.5104
        46.3004         43.3004
   1830037.44242   1441197.39845  24149529.032    24149528.7204   24149532.1864
        34.9004         33.3004
 -22354521.88648 -17395117.03848  19991251.270    19991251.4514   19991256.1094
        54.7004         52.2004
  -7902884.09546  -6133995.26447  22763329.978    22763330.6894   22763334.6714
        46.5004         43.7004
  -8609456.08545  -6692638.77946  22115817.017    22115816.9694   22115820.2634
        44.8004         41.8004
   -449981.17644   -330336.85246  23800180.549    23800179.4174   23800184.5464
        42.3004         39.7004
 -12395511.83148  -9649174.63448  20797550.380    20797550.5544   20797556.2394
        53.6004         50.8004
 25  2 24  0 15 30.0000000  0  7G04G19G09G07G11G03G06
 -15374857.32145 -11967573.29147  21241812.683    21241812.8224   21241816.4974
        46.3004         43.3004
   1932206.33542   1520809.43345  24168971.485    24168972.2744   24168975.8394
        34.5004         33.1004
 -22344736.94548 -17387492.39748  19993113.651    19993113.4624   19993118.2404
        54.7004         52.2004
  -7985751.36846  -6198567.13747  22747561.581    22747561.4624   22747564.8654
        46.7004         43.7004
  -8672218.35445  -6741544.43346  22103874.284    22103874.9074   22103877.2374
        44.8004         41.9004
   -352713.83844   -254544.14546  23818687.009    23818687.7444   23818693.8754
        42.2004         39.5004
 -12389131.80448  -9644203.19548  20798763.883    20798764.7844   20798770.2604
        53.6004         50.8004
 25  2 24  0 16  0.0000000  0  7G04G19G09G07G11G03G06
 -15308662.39645 -11915992.83147  21254409.380    21254409.1364   21254413.2284
        46.2004         43.2004
   2034479.99842   1600503.15145  24188434.930    24188434.5304   24188435.4304
        34.5004         33.1004
 -22334496.86148 -17379513.10948  19995062.223    19995062.4864   19995066.9444
        54.7004         52.2004
  -8068337.05846  -6262919.58247  22731845.514    22731845.7664   22731849.1184
        46.7004         43.9004
  -8734515.53745  -6790087.69047  22092019.397    22092019.5814   22092022.9844
        44.9004         42.1004
   -255326.70444   -178658.09746  23837218.680    23837219.8994   23837226.5994
        42.3004         39.7004
 -12382154.67848  -9638766.47948  20800091.910    20800092.3874   20800098.1214
        53.6004         50.8004
 25  2 24  0 16 30.0000000  0  7G04G19G09G07G11G03G06
 -15242159.04445 -11864172.03747  21267064.235    21267064.4284   21267068.8194
        46.2004         43.2004
   2136855.44542   1680276.13845  24207917.350    24207913.4394   24207917.1394
        34.5004         33.4004
 -22323802.53948 -17371179.86448  19997097.842    19997097.5244   19997102.0464
        54.7004         52.2004
  -8150638.71246  -6327050.70947  22716184.493    22716184.7474   22716188.4184
        46.9004         44.0004
  -8796345.44445  -6838266.82546  22080253.534    22080253.9674   22080256.7514
        44.9004         41.9004
   -157820.59244   -102679.34846  23855776.581    23855774.5794   23855781.1274
        42.3004         39.5004
 -12374580.28048  -9632864.35448  20801532.835    20801533.5624   20801539.1024
        53.5004         50.5004
 25  2 24  0 17  0.0000000  0  7G04G19G09G07G11G03G06
 -15175349.12545 -11812112.35447  21279777.860    21279777.6684   21279781.6694
        46.2004         43.0004
   2239329.17141   1760125.73745  24227415.741    24227411.9544   24227418.6154
        34.3004         32.9004
 -22312654.86448 -17362493.36448  19999218.935    19999218.9164   19999223.4614
        54.7004         52.2004
  -8232654.25946  -6390958.88447  22700577.410    22700577.4544   22700581.2244
        47.0004         44.2004
  -8857705.81345  -6886080.09447  22068576.984    22068577.1104   22068579.6574
        44.9004         42.1004
    -60196.40444    -26608.59346  23874350.376    23874352.0304   23874359.0104
        42.3004         39.7004
 -12366408.46348  -9626496.71348  20803088.130    20803088.7064   20803094.2654
        53.3004         50.5004
 25  2 24  0 17 30.0000000  0  7G04G19G09G07G11G03G06
 -15108234.44345 -11759815.20347  21292549.161    21292549.8494   21292553.5354
        46.2004         43.2004
   2341897.80351   1840049.30155  24246933.502    24246935.6484   24246936.6874
        34.2004         32.9004
 -22301054.73448 -17353454.29848  20001426.059    20001426.1784   20001430.8234
        54.7004         52.0004
  -8314381.54446  -6454642.45447  22685024.968    22685025.3374   22685028.9364
        47.2004         44.4004
  -8918594.40845  -6933525.74947  22056990.509    22056990.6794   22056993.3714
        45.1004         42.3004
     37545.07244     49553.59146  23892948.432    23892950.2244   23892958.3224
        42.3004         39.5004
 -12357639.11848  -9619663.46448  20804757.693    20804757.8514   20804763.1624
        53.5004         50.6004
 25  2 24  0 18  0.0000000  0  7G04G19G09G07G11G03G06
 -15040816.83145 -11707282.00247  21305378.219    21305378.5844   21305382.4554
        46.2004         43.2004
   2444558.16041   1920044.35145  24266470.937    24266467.0874   24266472.7214
        34.2004         32.7004
 -22289003.08148 -17344063.39448  20003719.108    20003719.4304   20003724.0694
        54.7004         52.0004
  -8395818.33046  -6518099.66147  22669528.720    22669528.9574   22669531.2574
        47.2004         44.4004
  -8979009.02445  -6980602.05847  22045494.056    22045493.8434   22045497.0554
        45.3004         42.5004
    135403.02844    125806.47946  23911573.780    23911573.3414   23911579.9514
        42.2004         39.5004
 -12348272.16948  -9612364.54448  20806539.684    20806540.1574   20806545.4414
        53.5004         50.5004
 25  2 24  0 18 30.0000000  0  7G04G19G09G07G11G03G06
 -14973098.06245 -11654514.13647  21318264.934    21318265.5034   21318268.5914
        46.2004         43.0004
   2547306.99041   2000108.31045  24286021.795    24286020.7864   24286021.7684
        33.8004         32.7004
 -22276500.85548 -17334321.39448  20006098.221    20006098.4354   20006103.0674
        54.7004         52.0004
  -8476962.27446  -6581328.67647  22654087.376    22654087.5544   22654090.4154
        47.2004         44.4004
  -9038947.43445  -7027307.29547  22034087.895    22034088.3074   22034091.2844
        45.5004         42.5004
    233376.63244    202149.50746  23930216.623    23930216.6444   23930224.0464
        42.2004         39.3004
 -12338307.50448  -9604599.87548  20808435.990    20808436.3374   20808441.7604
        53.5004         50.5004
 25  2 24  0 19  0.0000000  0  7G04G19G09G07G11G03G06
 -14905080.00945 -11601513.05847  21331208.537    21331208.9484   21331212.1674
        46.0004         43.0004
   2650140.64651   2080238.34955  24305591.953    24305587.1734   24305592.0064
        34.3004         33.1004
 -22263548.94548 -17324228.99548  20008562.916    20008563.1994   20008567.7054
        54.7004         52.2004
  -8557811.30546  -6644327.89547  22638702.047    22638702.1014   22638705.0704
        47.2004         44.2004
  -9098407.43845  -7073639.75647  22022773.374    22022773.3404   22022776.3194
        45.5004         42.5004
    331464.98444    278581.95646  23948881.076    23948882.8234   23948889.7904
        42.2004         39.5004
 -12327745.07048  -9596369.41948  20810445.807    20810446.3824   20810451.7144
        53.5004         50.6004
 25  2 24  0 19 30.0000000  0  7G04G19G09G07G11G03G06
 -14836764.46445 -11548280.17747  21344208.282    21344208.5114   21344212.2754
        46.0004         43.0004
   2753056.39051   2160432.32555  24325174.312    24325176.1764   24325177.3674
        33.8004         32.4004
 -22250148.35648 -17313786.97448  20011113.407    20011113.2854   20011117.7854
        54.7004         52.2004
  -8638363.20046  -6707095.57747  22623374.351    22623374.0004   22623375.8964
        47.2004         44.2004
  -9157386.83545  -7119597.71947  22011548.996    22011549.2954   22011552.8134
        45.3004         42.5004
    429667.33244    355103.22446  23967568.855    23967570.3484   23967576.8494
        42.3004         39.7004
 -12316584.88548  -9587673.17648  20812569.568    20812569.8584   20812575.4154
        53.5004         50.5004
 25  2 24  0 20  0.0000000  0  7G04G19G09G07G11G03G06
 -14768153.24345 -11494816.89547  21357264.970    21357265.6014   21357268.5814
        46.0004         42.8004
   2856050.81351   2240687.60955  24344776.126    24344774.0464   24344778.8314
        34.3004         33.4004
 -22236299.99248 -17302996.04248  20013748.333    20013748.7044   20013753.1534
        54.7004         52.2004
  -8718615.79146  -6769630.02147  22608102.752    22608102.1804   22608104.9794
        47.2004         44.4004
  -9215883.45945  -7165179.48847  22000417.845    22000418.7284   22000421.2454
        45.3004         42.5004
    527982.83844    431712.67546  23986278.718    23986279.6774   23986284.5124
        42.3004         39.5004
 -12304826.90848  -9578511.12848  20814807.032    20814807.5644   20814812.9154
        53.5004         50.6004
 25  2 24  0 20 30.0000000  0  7G04G19G09G07G11G03G06
 -14699248.18545 -11441124.64747  21370376.195    21370376.7724   21370380.1514
        45.8004         42.6004
   2959120.70052   2321001.69255  24364388.275    24364385.9554   24364390.3654
        34.9004         33.4004
 -22222004.82248 -17291856.94548  20016468.592    20016468.8934   20016473.2744
        54.7004         52.2004
  -8798566.82546  -6831929.50447  22592887.326    22592888.0674   22592891.1334
        47.4004         44.5004
  -9273895.11145  -7210383.36947  21989379.261    21989378.6794   21989382.0124
        45.3004         42.3004
    626410.57844    508409.61246  24005010.323    24005009.7904   24005015.2704
        42.3004         39.5004
 -12292471.14948  -9568883.27348  20817158.440    20817158.8914   20817163.9054
        53.5004         50.5004
 25  2 24  0 21  0.0000000  0  7G04G19G09G07G11G03G06
 -14630051.06945 -11387204.82847  21383544.878    21383544.8284   21383548.0734
        45.6004         42.6004
   3062262.63252   2401371.94555  24384013.568    24384014.4464   24384015.2494
        35.0004         33.6004
 -22207263.83848 -17280370.46148  20019274.371    20019274.1024   20019278.5664
        54.7004         52.2004
  -8878214.34046  -6893992.47047  22577731.013    22577731.6814   22577734.7314
        47.5004         44.7004
  -9331419.64345  -7255207.67847  21978432.108    21978432.3914   21978435.9624
        45.1004         42.1004
    724949.84444    585193.41146  24023763.217    24023762.3974   24023765.9304
        42.0004         39.2004
 -12279517.69148  -9558789.67948  20819623.016    20819623.8204   20819628.9594
        53.5004         50.5004
 25  2 24  0 21 30.0000000  0  7G04G19G09G07G11G03G06
 -14560563.72045 -11333058.85847  21396766.466    21396767.4304   21396771.3704
        45.6004         42.6004
   3165473.39542   2481795.83545  24403656.222    24403652.7614   24403659.6304
        35.2004         33.6004
 -22192078.01348 -17268537.34348  20022163.768    20022163.7724   20022168.4214
        54.7004         52.2004
  -8957555.98446  -6955817.09247  22562634.217    22562633.4704   22562635.9544
        47.7004         44.7004
  -9388454.95445  -7299650.77047  21967578.690    21967578.9724   21967582.2914
        45.1004         42.3004
    823599.69344    662063.40046  24042531.217    24042533.4084   24042538.6374
        42.0004         39.3004
 -12265966.56548  -9548230.37148  20822202.186    20822202.7894   20822207.5594
        53.5004         50.6004
 25  2 24  0 22  0.0000000  0  7G04G19G09G07G11G03G06
 -14490787.94545 -11278688.12647  21410045.949    21410045.4404   21410049.2564
        45.5004         42.5004
   3268749.62442   2562270.77345  24423306.967    24423304.9334   24423308.2274
        34.9004         33.4004
 -22176448.32148 -17256358.35848  20025137.760    20025137.9384   20025142.5174
        54.7004         52.2004
  -9036589.49446  -7017401.61647  22547593.139    22547593.7454   22547597.0114
        47.9004         44.9004
  -9444998.88945  -7343710.96447  21956818.724    21956818.9054   21956822.7604
        45.1004         42.1004
    922359.29844    739018.91446  24061323.319    24061325.6994   24061331.3884
        41.8004         39.0004
 -12251817.89048  -9537205.44248  20824894.645    20824894.8494   20824900.0204
        53.5004         50.6004
 25  2 24  0 22 30.0000000  0  7G04G19G09G07G11G03G06
 -14420725.55145 -11224094.05947  21423377.946    21423378.0754   21423381.2624
        45.5004         42.3004
   3372088.33042   2642794.41545  24442972.547    24442972.4334   24442977.0434
        34.7004         33.1004
 -22160375.75748 -17243834.28048  20028196.301    20028196.5724   20028201.1184
        54.8004         52.2004
  -9115313.06546  -7078744.62347  22532614.005    22532613.6334   22532616.1344
        47.9004         45.1004
  -9501049.28445  -7387386.59247  21946152.866    21946153.3384   21946156.1544
        45.1004         42.1004
   1021227.86944    816059.34546  24080141.539    24080140.5854   24080147.0514
        41.6004         38.8004
 -12237071.75548  -9525714.95448  20827700.195    20827700.9264   20827706.3334
        53.5004         50.6004
 25  2 24  0 23  0.0000000  0  7G04G19G09G07G11G03G06
 -14350378.34645 -11169278.07147  21436763.961    21436764.6604   21436768.2164
        45.5004         42.3004
   3475486.12542   2723364.03445  24462650.437    24462648.7814   24462651.5794
        34.5004         33.1004
 -22143861.33748 -17230965.89948  20031339.085    20031339.1044   20031343.8184
        54.8004         52.2004
  -9193724.54646  -7139844.43747  22517691.356    22517691.9834   22517694.4254
        48.1004         45.1004
  -9556604.04245  -7430676.01546  21935581.397    21935581.4494   21935584.0844
        44.9004         41.9004
   1120204.54744    893183.96246  24098977.665    24098975.0134   24098982.2754
        41.5004         38.8004
 -12221728.30048  -9513759.02748  20830620.661    20830621.0184   20830626.2574
        53.5004         50.8004
 25  2 24  0 23 30.0000000  0  7G04G19G09G07G11G03G06
 -14279748.11045 -11114241.53447  21450205.335    21450205.7054   21450208.4924
        45.5004         42.3004
   3578939.69041   2803977.14945  24482334.584    24482333.1664   24482337.7694
        34.2004         32.7004
 -22126906.08648 -17217754.01048  20034565.392    20034565.5924   20034570.2894
        54.8004         52.2004
  -9271821.67546  -7200699.31547  22502830.149    22502830.5424   22502833.3524
        48.1004         45.1004
  -9611661.13145  -7473577.62946  21925103.725    21925104.1014   21925107.2454
        44.8004         41.9004
   1219288.44944    970392.14346  24117831.714    24117830.2614   24117837.2754
        41.5004         38.8004
 -12205787.67748  -9501337.77548  20833653.937    20833654.2604   20833659.7934
        53.6004         50.8004
 25  2 24  0 24  0.0000000  0  7G04G19G09G07G11G03G06
 -14208836.65245 -11058985.85947  21463699.143    21463699.4484   21463702.9664
        45.5004         42.5004
   3682446.04042   2884631.32745  24502032.562    24502031.8954   24502036.5584
        35.2004         33.8004
 -22109510.99648 -17204199.38948  20037875.690    20037875.7394   20037880.5634
        54.7004         52.2004
  -9349602.29246  -7261307.55447  22488030.129    22488029.8424   22488032.5624
        48.1004         45.2004
  -9666218.41745  -7516089.78946  21914721.921    21914722.2834   21914725.7094
        44.8004         41.9004
   1318478.78844   1047683.29246  24136703.337    24136704.7044   24136711.5584
        41.3004         38.8004
 -12189250.08048  -9488451.34148  20836800.617    20836801.2674   20836806.5084
        53.5004         50.6004
 25  2 24  0 24 30.0000000  0  7G04G19G09G07G11G03G06
 -14137645.78045 -11003512.46247  21477246.429    21477247.0924   21477249.9764
        45.5004         42.5004
   3786001.79342   2965324.01745  24521739.418    24521737.4804   24521741.9894
        36.1004         34.5004
 -22091677.09548 -17190302.84248  20041269.376    20041269.6524   20041274.1934
        54.7004         52.2004
  -9427064.32146  -7321667.55347  22473288.356    22473289.1374   22473291.5044
        48.1004         45.2004
  -9720273.78645  -7558210.83346  21904435.155    21904435.6844   21904439.9124
        44.9004         41.9004
   1417774.69944   1125056.68446  24155601.707    24155601.1594   24155606.4474
        41.3004         38.5004
 -12172115.73548  -9475099.91348  20840061.503    20840062.1494   20840067.1374
        53.5004         50.6004
 25  2 24  0 25  0.0000000  0  7G04G19G09G07G11G03G06
 -14066177.28645 -10947822.72647  21490847.230    21490846.6804   21490849.8024
        45.5004         42.5004
   3889603.69842   3046052.68645  24541452.661    24541451.1314   24541456.4704
        36.6004         34.8004
 -22073405.42248 -17176065.17348  20044746.502    20044746.4174   20044751.0174
        54.7004         52.2004
  -9504205.93346  -7381777.87147  22458610.545    22458609.8894   22458612.1994
        48.2004         45.2004
  -9773825.21045  -7599939.20047  21894245.233    21894245.0624   21894248.9564
        45.1004         42.3004
   1517175.33844   1202511.67446  24174517.300    24174517.5244   24174523.0204
        41.3004         38.6004
 -12154384.83448  -9461283.63748  20843435.658    20843435.9094   20843441.0874
        53.5004         50.6004
 25  2 24  0 25 30.0000000  0  7G04G19G09G07G11G03G06
 -13994432.94645 -10891918.04847  21504499.183    21504498.9414   21504502.3434
        45.5004         42.3004
   3993248.77842   3126814.98445  24561175.861    24561174.0364   24561179.5124
        37.0004         35.0004
 -22054697.04748 -17161487.22048  20048306.149    20048306.4844   20048311.0404
        54.7004         52.2004
  -9581024.41346  -7441636.39747  22443991.422    22443991.2804   22443993.6784
        48.1004         45.1004
  -9826870.64045  -7641273.29647  21884150.275    21884150.6124   21884153.6694
        45.1004         42.1004
   1616679.71644   1280047.54446  24193447.451    24193450.7704   24193456.8954
        41.3004         38.6004
 -12136057.65148  -9447002.72048  20846922.796    20846923.0004   20846928.6844
        53.5004         50.5004
 25  2 24  0 26  0.0000000  0  7G04G19G09G07G11G03G06
 -13922414.54845 -10835799.81947  21518203.617    21518203.7344   21518206.5824
        45.3004         42.3004
   4096933.70842   3207608.32545  24580906.305    24580905.4144   24580910.2224
        37.1004         35.0004
 -22035552.98448 -17146569.76848  20051949.369    20051949.4224   20051954.1274
        54.7004         52.2004
  -9657518.12546  -7501241.86247  22429435.283    22429434.9974   22429437.4854
        47.9004         44.9004
  -9879408.08445  -7682211.54547  21874152.457    21874152.8214   21874156.9274
        45.1004         42.3004
   1716287.27544   1357663.78346  24212403.834    24212405.7764   24212412.8474
        41.3004         38.6004
 -12117134.47148  -9432257.39548  20850523.542    20850524.0854   20850529.6814
        53.3004         50.5004
 25  2 24  0 26 30.0000000  0  7G04G19G09G07G11G03G06
 -13850123.89245 -10779469.44147  21531959.670    21531960.0164   21531963.7954
        45.3004         42.3004
   4200655.32242   3288430.26545  24600645.188    24600643.7494   24600646.6084
        37.3004         35.2004
 -22015974.32948 -17131313.67148  20055674.877    20055675.0104   20055679.7544
        54.7004         52.2004
  -9733685.10146  -7560592.72047  22414941.991    22414940.9534   22414943.3224
        47.7004         44.7004
  -9931435.44645  -7722752.34647  21864252.083    21864253.2144   21864255.7064
        45.3004         42.5004
   1815996.99944   1435359.62146  24231383.283    24231381.3504   24231386.5114
        41.1004         38.5004
 -12097615.56048  -9417047.87748  20854238.062    20854238.4304   20854243.9404
        53.3004         50.6004
 25  2 24  0 27  0.0000000  0  7G04G19G09G07G11G03G06
 -13777562.78945 -10722928.32147  21545767.078    21545767.0914   21545771.5794
        45.1004         42.1004
   4304410.42142   3369278.29445  24620389.758    24620388.3294   24620391.6494
        37.0004         34.8004
 -21995962.08848 -17115719.71948  20059482.847    20059483.3464   20059487.7604
        54.7004         52.0004
  -9809522.84346  -7619687.03647  22400509.671    22400509.1794   22400511.8244
        47.7004         44.7004
  -9982950.75545  -7762894.13347  21854450.446    21854450.0084   21854453.4344
        45.5004         42.5004
   1915808.00444   1513134.38746  24250376.068    24250373.6064   24250380.1174
        41.1004         38.5004
 -12077501.27848  -9401374.41948  20858065.337    20858065.8064   20858071.9644
        53.3004         50.6004
 25  2 24  0 27 30.0000000  0  7G04G19G09G07G11G03G06
 -13704732.95245 -10666177.81447  21559626.359    21559626.9774   21559631.3914
        45.1004         42.1004
   4408195.96442   3450150.05745  24640138.275    24640138.6764   24640140.3804
        37.0004         34.6004
 -21975517.37748 -17099788.77548  20063374.045    20063374.0744   20063378.2524
        54.7004         52.2004
  -9885029.77546  -7678523.57447  22386140.832    22386140.9694   22386143.1554
        47.7004         44.9004
 -10033951.98845  -7802635.34147  21844745.086    21844744.7594   21844748.1154
        45.5004         42.6004
   2015719.50944   1590987.46246  24269386.120    24269385.5314   24269391.8274
        40.8004         38.1004
 -12056791.99848  -9385237.32848  20862006.636    20862006.9294   20862012.6074
        53.3004         50.5004
 25  2 24  0 28  0.0000000  0  7G04G19G09G07G11G03G06
 -13631636.23445 -10609219.32946  21573535.904    21573537.0974   21573540.4924
        44.9004         41.9004
   4512008.51342   3531042.86145  24659892.545    24659891.9494   24659897.7164
        36.4004         34.5004
 -21954641.27348 -17083521.68048  20067346.635    20067346.6204   20067351.1124
        54.7004         52.2004
  -9960203.60246  -7737100.55247  22371835.826    22371835.4174   22371838.4734
        47.9004         45.1004
 -10084437.19245  -7841974.45047  21835137.863    21835137.9334   21835141.0864
        45.6004         42.6004
   2115730.55843   1668918.13346  24288414.341    24288417.0654   24288422.5444
        40.4004         37.6004
 -12035488.03948  -9368636.85548  20866060.609    20866061.1274   20866066.3084
        53.3004         50.5004
 25  2 24  0 28 30.0000000  0  7G04G19G09G07G11G03G06
 -13558274.36645 -10552054.23446  21587495.922    21587496.3664   21587501.1824
        44.9004         41.9004
   4615844.90742   3611954.22645  24679651.228    24679647.8554   24679658.2614
        35.9004         34.0004
 -21933334.87748 -17066919.28848  20071400.665    20071400.9694   20071405.4434
        54.7004         52.2004
 -10035042.45946  -7795416.52147  22357593.750    22357594.3394   22357597.6394
        48.1004         45.2004
 -10134404.38145  -7880909.90947  21825629.566    21825629.8974   21825632.0914
        45.6004         42.6004
   2215840.41843   1746925.79646  24307468.094    24307467.3814   24307472.0494
        40.3004         37.6004
 -12013589.81448  -9351573.31648  20870227.593    20870228.1524   20870233.6524
        53.3004         50.5004
 25  2 24  0 29  0.0000000  0  7G04G19G09G07G11G03G06
 -13484649.11745 -10494683.91746  21601506.085    21601507.1694   21601511.6974
        44.9004         41.9004
   4719702.42542   3692882.04845  24699416.853    24699414.3744   24699419.6204
        35.0004         33.3004
 -21911599.23448 -17049982.42148  20075537.065    20075537.2744   20075541.5844
        54.7004         52.2004
 -10109544.12446  -7853469.73647  22343416.293    22343417.0204   22343419.7044
        48.2004         45.2004
 -10183851.59445  -7919440.21247  21816220.012    21816220.5964   21816223.2364
        45.6004         42.6004
   2316048.25943   1825009.74946  24326536.115    24326536.7164   24326542.1194
        40.4004         37.8004
 -11991097.74948  -9334047.03448  20874507.569    20874508.1504   20874513.9134
        53.5004         50.6004
 25  2 24  0 29 30.0000000  0  7G04G19G09G07G11G03G06
 -13410762.28145 -10437109.76647  21615567.452    21615567.8034   21615571.8284
        44.9004         42.1004
   4823577.50842   3773823.54545  24719181.705    24719183.4944   24719189.4024
        34.7004         33.3004
 -21889435.47448 -17032711.95748  20079754.794    20079754.8424   20079759.2674
        54.7004         52.2004
 -10183706.31046  -7911258.42447  22329303.544    22329304.1414   22329307.0814
        48.1004         45.1004
 -10232776.93645  -7957563.84447  21806910.373    21806910.5814   21806912.6024
        45.6004         42.6004
   2416353.10943   1903169.33246  24345623.524    24345625.5734   24345629.7344
        40.4004         37.8004
 -11968012.27148  -9316058.36148  20878901.451    20878901.4894   20878906.6804
        53.5004         50.5004
 25  2 24  0 30  0.0000000  0  7G04G19G09G07G11G03G06
 -13336615.58745 -10379333.12146  21629676.709    21629677.1334   21629681.1504
        44.9004         41.9004
   4927467.27841   3854776.52345  24738953.714    24738950.5464   24738955.8294
        34.2004         32.7004
 -21866844.67448 -17015108.73548  20084053.718    20084053.7134   20084058.2744
        54.7004         52.2004
 -10257527.69646  -7968781.54647  22315256.191    22315256.1344   22315259.8814
        48.1004         45.2004
 -10281178.44845  -7995279.30547  21797699.028    21797699.7554   21797701.5004
        45.5004         42.3004
   2516754.18443   1981403.91446  24364728.669    24364729.9264   24364735.0624
        40.4004         37.9004
 -11944333.87048  -9297607.66948  20883406.902    20883407.3604   20883412.5684
        53.5004         50.5004
 25  2 24  0 30 30.0000000  0  7G04G19G09G07G11G03G06
 -13262210.85045 -10321355.40747  21643835.730    21643836.1774   21643840.6284
        44.9004         42.1004
   5031368.39351   3935738.33955  24758722.979    24758718.9024   24758727.3664
        33.3004         32.0004
 -21843828.04648 -16997173.69248  20088433.612    20088433.5094   20088438.1404
        54.7004         52.0004
 -10331005.50946  -8026036.94847  22301273.828    22301273.5984   22301277.3144
        48.2004         45.4004
 -10329054.25345  -8032585.12147  21788589.406    21788589.2534   21788591.9524
        45.5004         42.5004
   2617250.55043   2059712.73046  24383853.898    24383852.9604   24383860.2614
        40.4004         37.8004
 -11920063.02348  -9278695.32848  20888025.777    20888026.1094   20888031.2914
        53.5004         50.6004
 25  2 24  0 31  0.0000000  0  7G04G19G09G07G11G03G06
 -13187549.79945 -10263177.95747  21658043.713    21658044.0314   21658048.2714
        45.1004         42.1004
   5135277.68151   4016706.51055  24778500.809    24778498.0714
        31.9004         31.5004
 -21820386.57948 -16978907.61148  20092894.139    20092894.2864   20092898.6734
        54.7004         52.0004
 -10404138.43346  -8083023.61047  22287356.819    22287357.0594   22287360.4264
        48.4004         45.6004
 -10376402.41345  -8069479.77647  21779578.771    21779579.3454   21779581.4104
        45.5004         42.5004
   2717841.40943   2138095.16646  24402994.530    24402994.9994   24403002.0524
        40.4004         37.8004
 -11895200.22248  -9259321.72448  20892756.767    20892757.2184   20892762.7344
        53.5004         50.8004
 25  2 24  0 31 30.0000000  0  7G04G19G09G07G11G03G06
 -13112634.19745 -10204802.17546  21672300.252    21672300.5044   21672303.4124
        45.1004         41.9004
                   4097678.81155  24798273.941
                        31.0004
 -21796521.51948 -16960311.45548  20097435.708    20097435.7694   20097440.0304
        54.7004         52.0004
 -10476924.11746  -8139739.69347  22273506.067    22273506.3864   22273509.9144
        48.6004         45.9004
 -10423221.04645  -8105961.82547  21770669.964    21770670.2424   21770672.5864
        45.5004         42.6004
   2818525.89744   2216550.60146  24422156.017    24422156.3014   24422161.5084
        40.6004         37.9004
 -11869746.01448  -9239487.29148  20897600.692    20897600.8264   20897606.4174
        53.5004         50.6004
 25  2 24  0 32  0.0000000  0  8G30G04G19G09G07G11G03G06
   -407469.96753   -294761.60856  24423956.929    24423957.2294   24423966.2254
        40.1004         38.6004
 -13037465.80545 -10146229.39746  21686603.304    21686604.0584   21686607.9094
        44.9004         41.8004
                   4178652.73155  24818051.387
                        30.3004
 -21772233.91148 -16941386.04548  20102057.103    20102057.3554   20102061.9294
        54.5004         52.0004
 -10549360.53246  -8196183.62547  22259721.928    22259722.5494   22259725.8994
        48.8004         45.9004
 -10469508.34345  -8142029.82347  21761860.629    21761861.1534   21761864.2414
        45.6004         42.8004
   2919303.16644   2295078.29846  24441335.776    24441334.4054   24441338.7104
        40.6004         38.1004
 -11843700.97348  -9219192.46948  20902556.351    20902556.8924   20902562.8264
        53.5004         50.6004
 25  2 24  0 32 30.0000000  0  7G30G04G09G07G11G03G06
   -516162.62444   -379457.15346  24403272.917    24403274.2164   24403282.6174
        40.9004         38.6004
 -12962046.36645 -10087461.00846  21700955.140    21700955.9574   21700959.5444
        44.8004         41.8004
 -21747524.94148 -16922132.29948  20106759.123    20106759.2764   20106763.8734
        54.5004         52.0004
 -10621446.06646  -8252354.13947  22246004.749    22246005.1264   22246008.3184
        48.8004         45.8004
 -10515262.39045  -8177682.32247  21753154.807    21753154.7314   21753157.2134
        45.8004         43.0004
   3020172.39344   2373677.65246  24460530.461    24460528.5994   24460533.3754
        40.6004         37.8004
 -11817065.66848  -9198437.70348  20907624.862    20907625.1964   20907631.4234
        53.3004         50.6004
 25  2 24  0 33  0.0000000  0  7G30G04G09G07G11G03G06
   -624792.06654   -464103.40856  24382602.771    24382602.9694   24382610.1164
        41.5004         39.0004
 -12886377.64745 -10028498.36846  21715354.969    21715354.9584   21715357.8004
        44.6004         41.6004
 -21722395.74348 -16902551.10048  20111541.068    20111541.1204   20111545.8574
        54.5004         51.8004
 -10693178.87946  -8308249.80447  22232354.915    22232354.2694   22232357.2644
        48.6004         45.6004
 -10560481.37445  -8212917.89147  21744549.806    21744550.2024   21744553.1084
        46.0004         43.0004
   3121132.57344   2452347.89746  24479739.333    24479740.0804   24479745.8694
        40.6004         37.9004
 -11789840.71548  -9177223.47048  20912805.594    20912806.1964   20912812.1054
        53.3004         50.6004
 25  2 24  0 33 30.0000000  0  7G30G04G09G07G11G03G06
   -733356.03244   -548698.65546  24361944.400    24361944.3314   24361950.1584
        41.5004         38.8004
 -12810461.33845  -9969342.80646  21729800.925    21729801.3184   21729804.5914
        44.6004         41.6004
 -21696847.47048 -16882643.35248  20116402.883    20116402.8354   20116407.5784
        54.5004         51.8004
 -10764556.63746  -8363868.80947  22218771.912    22218771.7974   22218774.1504
        48.4004         45.4004
 -10605163.48145  -8247735.11847  21736047.069    21736046.5644   21736050.1434
        46.2004         43.2004
   3222182.94344   2531088.41446  24498971.109    24498969.4684   24498976.3394
        40.8004         38.3004
 -11762026.75448  -9155550.26948  20918099.459    20918099.3784   20918105.0544
        53.5004         50.8004
 25  2 24  0 34  0.0000000  0  7G30G04G09G07G11G03G06
   -841852.08444   -633240.98846  24341297.065    24341296.8764   24341303.8724
        41.5004         38.8004
 -12734299.19645  -9909995.68446  21744294.125    21744294.5724   21744297.8824
        44.4004         41.4004
 -21670881.25448 -16862409.93548  20121344.031    20121344.1524   20121348.7774
        54.5004         52.0004
 -10835577.32246  -8419209.57347  22205257.245    22205256.5364   22205259.5184
        48.4004         45.2004
 -10649306.91645  -8282132.59047  21727646.441    21727647.0584   21727649.7964
        46.2004         43.3004
   3323322.63844   2609898.49846  24518219.972    24518216.2434   24518223.1664
        40.6004         37.8004
 -11733624.44648  -9133418.61248  20923503.522    20923504.0774   20923509.7634
        53.5004         50.6004
 25  2 24  0 34 30.0000000  0  7G30G04G09G07G11G03G06
   -950277.91344   -717728.57846  24320663.050    24320662.9274   24320671.0294
        41.5004         38.8004
 -12657892.96845  -9850458.35646  21758833.469    21758834.1924   21758837.4544
        44.2004         41.4004
 -21644498.30948 -16841851.78948  20126364.974    20126364.6624   20126369.3094
        54.7004         52.0004
 -10906239.05446  -8474270.64247  22191808.885    22191809.9604   22191813.2004
        48.2004         45.4004
 -10692909.86645  -8316108.90447  21719349.783    21719349.5844   21719352.7634
        46.2004         43.2004
   3424550.66944   2688777.47046  24537478.093    24537479.4134   24537485.0454
        40.6004         37.9004
